  {
    "defaultLocation":{"latitude":41.3137919,"longitude":-72.9234645},
    "locations":[
      {"latitude":41.3068877,"longitude":-72.9424517,"name":"Air Rights Garage","abbreviation":"ARG","address":"North Frontage Road New Haven, CT 06511 New Haven, CT 06511","description":null,"img":"http://business.yale.edu/map/thumbnail/ARG.jpg","searchText":"air rights garage~arg~","searchKeys":[],"categories":["parking"],"campuses":["Main"]},
      {"latitude":41.3137919,"longitude":-72.9234645,"name":"Allwin Hall","abbreviation":"ALW","address":"31 Hillhouse Avenue New Haven, CT 06511","description":null,"img":"http://business.yale.edu/map/thumbnail/ALW.jpg","searchText":"allwin hall~alw~","searchKeys":[],"categories":["food","library"],"campuses":["Main"]},
      {"latitude":41.3005410,"longitude":-72.9298077,"name":"10 Amistad Street","abbreviation":"AMISB","address":"10 Amistad Street New Haven, CT 06511","description":null,"img":"http://business.yale.edu/map/thumbnail/AMISB.jpg","searchText":"10 amistad street~amisb~","searchKeys":[],"categories":["food","library"],"campuses":["Main"]},
      {"latitude":41.3005410,"longitude":-72.9298077,"name":"Amistad Street Garage","abbreviation":"AMISG","address":"10 Amistad Street New Haven, CT 06511","description":null,"img":"http://business.yale.edu/map/thumbnail/AMISG.jpg","searchText":"amistad street garage~amisg~","searchKeys":[],"categories":["parking"],"campuses":["Main"]},
      {"latitude":41.3016969,"longitude":-72.9334607,"name":"Anlyan Center","abbreviation":"TAC","address":"300 Cedar Street New Haven, CT 06511","description":null,"img":"http://business.yale.edu/map/thumbnail/TAC.jpg","searchText":"anlyan center~tac~","searchKeys":[],"categories":["lecture hall"],"campuses":["Main"]},
      {"latitude":41.3125760,"longitude":-72.9635699,"name":"Armory","abbreviation":"ARMORY","address":"70 Central Avenue New Haven, CT 06515","description":null,"img":"http://business.yale.edu/map/thumbnail/ARMORY.jpg","searchText":"armory~armory~","searchKeys":[],"categories":["athletic facility"],"campuses":["Main"]},
      {"latitude":41.3112273,"longitude":-72.9314304,"name":"Arnold Hall","abbreviation":"ARNOLD","address":"304 Elm Street New Haven, CT 06511","description":null,"img":"http://business.yale.edu/map/thumbnail/ARNOLD.jpg","searchText":"arnold hall~arnold~","searchKeys":[],"categories":["residence hall"],"campuses":["Main"]},
      {"latitude":41.3100858,"longitude":-72.9595585,"name":"Artificial Turf Field","abbreviation":"ARTTURF","address":"256 Derby Avenue West Haven, CT 06516","description":null,"img":"http://business.yale.edu/map/photo/nail/ARTTURF.jpg","searchText":"artificial turf field~artturf~","searchKeys":[],"categories":["athletic facility"],"campuses":["Main"]},
      {"latitude":41.3111324,"longitude":-72.9207514,"name":"Audubon Court Garage","abbreviation":"AUDUGAR","address":"78 Audubon Street New Haven, CT 06511","description":null,"img":"http://business.yale.edu/map/thumbnail/AUDUGAR.jpg","searchText":"audubon court garage~audugar~","searchKeys":[],"categories":["parking"],"campuses":["Main"]},
      {"latitude":41.3180281,"longitude":-72.9214311,"name":"Bass Center","abbreviation":"BASS","address":"266 Whitney Avenue New Haven, CT 06511","description":null,"img":"http://business.yale.edu/map/thumbnail/BASS.jpg","searchText":"bass center~bass~","searchKeys":[],"categories":["food","library"],"campuses":["Main"]},
      {"latitude":41.3110330,"longitude":-72.9269560,"name":"Bass Library","abbreviation":"BASSLB","address":"110 Wall Street New Haven, CT 06511","description":null,"img":"http://business.yale.edu/map/thumbnail/BASSLB.jpg","searchText":"bass library~basslb~","searchKeys":[],"categories":["food","library"],"campuses":["Main"]},
      {"latitude":41.3094471,"longitude":-72.9269999,"name":"Battell Chapel","abbreviation":"BATTELL","address":"400 College Street New Haven, CT 06511","description":null,"img":"http://business.yale.edu/map/thumbnail/BATTELL.jpg","searchText":"battell chapel~battell~","searchKeys":[],"categories":["lecture hall"],"campuses":["Main"]},
      {"latitude":41.3125160,"longitude":-72.9250570,"name":"Becton Center &amp; Davies Auditorium","abbreviation":"BCT","address":"15 Prospect Street New Haven, CT 06511","description":null,"img":"http://business.yale.edu/map/thumbnail/BCT.jpg","searchText":"becton center &amp; davies auditorium~bct~","searchKeys":[],"categories":["lecture hall","library"],"campuses":["Main"]},
      {"latitude":41.3115250,"longitude":-72.9271390,"name":"Beinecke Rare Book &amp; Manuscript Library","abbreviation":"BRBL","address":"121 Wall Street New Haven, CT 06511","description":null,"img":"http://business.yale.edu/map/thumbnail/BRBL.jpg","searchText":"beinecke rare book &amp; manuscript library~brbl~","searchKeys":[],"categories":["library"],"campuses":["Main"]},
      {"latitude":41.3253814,"longitude":-72.9206784,"name":"Bellamy Hall ","abbreviation":"BELLAMY","address":"354 Canner Street New Haven, CT 06511","description":null,"img":"http://business.yale.edu/map/thumbnail/BELLAMY.jpg","searchText":"bellamy hall ~bellamy~","searchKeys":[],"categories":["residence hall"],"campuses":["Main"]},
      {"latitude":41.3101056,"longitude":-72.9285542,"name":"Berkeley College","abbreviation":"BK","address":"205 Elm Street New Haven, CT 06511","description":null,"img":"http://business.yale.edu/map/thumbnail/BK.jpg","searchText":"berkeley college~bk~","searchKeys":[],"categories":["residential college"],"campuses":["Main"]},
      {"latitude":41.4244741,"longitude":-72.9759596,"name":"Bethany Observatory","abbreviation":"BETHOBSV","address":"Hilltop Road, Bethany, CT New Haven, CT 06511","description":null,"img":"http://business.yale.edu/map/thumbnail/BETHOBSV.jpg","searchText":"bethany observatory~bethobsv~","searchKeys":[],"categories":["food","library"],"campuses":["Main"]},
      {"latitude":41.3229654,"longitude":-72.9233527,"name":"Betts House","abbreviation":"BETTS","address":"393 Prospect Street New Haven, CT 06511","description":null,"img":"http://business.yale.edu/map/thumbnail/BETTS.jpg","searchText":"betts house~betts~","searchKeys":[],"categories":["food","library"],"campuses":["Main"]},
      {"latitude":41.3082085,"longitude":-72.9279775,"name":"Bingham Hall","abbreviation":"BM","address":"300 College Street New Haven, CT 06511","description":null,"img":"http://business.yale.edu/map/thumbnail/BM.jpg","searchText":"bingham hall~bm~","searchKeys":[],"categories":["residence hall","library"],"campuses":["Main"]},
      {"latitude":41.3024044,"longitude":-72.9338542,"name":"Boardman Building","abbreviation":"BB","address":"330 Cedar Street New Haven, CT 06511","description":null,"img":"http://business.yale.edu/map/thumbnail/BB.jpg","searchText":"boardman building~bb~","searchKeys":[],"categories":["food","library"],"campuses":["Main"]},
      {"latitude":41.3020574,"longitude":-72.9329622,"name":"Boyer Center","abbreviation":"BCMM","address":"295 Congress Avenue New Haven, CT 06511","description":null,"img":"http://business.yale.edu/map/thumbnail/BCMM.jpg","searchText":"boyer center~bcmm~","searchKeys":[],"categories":["food","library"],"campuses":["Main"]},
      {"latitude":41.3019865,"longitude":-72.9336171,"name":"Brady Memorial Laboratory","abbreviation":"BML","address":"310 Cedar Street New Haven, CT 06511","description":null,"img":"http://business.yale.edu/map/thumbnail/BML.jpg","searchText":"brady memorial laboratory~bml~","searchKeys":[],"categories":["library","lecture hall"],"campuses":["Main"]},
      {"latitude":41.3089860,"longitude":-72.9296490,"name":"Branford College","abbreviation":"BR","address":"74 High Street New Haven, CT 06511","description":null,"img":"http://business.yale.edu/map/thumbnail/BR.jpg","searchText":"branford college~br~","searchKeys":[],"categories":["residential college"],"campuses":["Main"]},
      {"latitude":41.3212912,"longitude":-72.9283391,"name":"29-45 Broadway","abbreviation":"BRWY29","address":"29-45 Broadway New Haven, CT 06511","description":null,"img":"http://business.yale.edu/map/thumbnail/BRWY29.jpg","searchText":"29-45 broadway~brwy29~","searchKeys":[],"categories":["food","library"],"campuses":["Main"]},
      {"latitude":41.3113057,"longitude":-72.9306495,"name":"35 Broadway","abbreviation":"BRWY35","address":"35 Broadway New Haven, CT 06511","description":null,"img":"http://business.yale.edu/map/thumbnail/BRWY35.jpg","searchText":"35 broadway~brwy35~","searchKeys":[],"categories":["food","library"],"campuses":["Main"]},
      {"latitude":null,"longitude":null,"name":"Broadway Parking Lot","abbreviation":"BRWYPKG","address":"Broadway &amp; Elm Street New Haven, CT 06511","description":null,"img":"http://business.yale.edu/map/thumbnail/BRWYPKG.jpg","searchText":"broadway parking lot~brwypkg~","searchKeys":[],"categories":["parking"],"campuses":["Main"]},
      {"latitude":41.3096960,"longitude":-72.9274390,"name":"Calhoun College","abbreviation":"CC","address":"189 Elm Street New Haven, CT 06511","description":null,"img":"http://business.yale.edu/map/thumbnail/CC.jpg","searchText":"calhoun college~cc~","searchKeys":[],"categories":["residential college"],"campuses":["Main"]},
      {"latitude":41.3283430,"longitude":-72.9196724,"name":"Calvin Hill Day Care Center","abbreviation":"CHDC","address":"150 Highland Street New Haven, CT 06511","description":null,"img":"http://business.yale.edu/map/thumbnail/CHDC.jpg","searchText":"calvin hill day care center~chdc~","searchKeys":[],"categories":["food","library"],"campuses":["Main"]},
      {"latitude":41.3129161,"longitude":-72.9292055,"name":"Central Power Plant","abbreviation":"CPP","address":"120 Tower Parkway New Haven, CT 06511","description":null,"img":"http://business.yale.edu/map/thumbnail/CPP.jpg","searchText":"central power plant~cpp~","searchKeys":[],"categories":["food","library"],"campuses":["Main"]},
      {"latitude":41.3091103,"longitude":-72.9344119,"name":"1201 Chapel Street","abbreviation":"CHAPEL1201","address":"1201 Chapel Street New Haven, CT 06511","description":null,"img":"http://business.yale.edu/map/thumbnail/CHAPEL1201.jpg","searchText":"1201 chapel street~chapel1201~","searchKeys":[],"categories":["food","library"],"campuses":["Main"]},
      {"latitude":41.3091351,"longitude":-72.9345226,"name":"1203 Chapel Street","abbreviation":"CHAPEL1203","address":"1203 Chapel Street New Haven, CT 06511","description":null,"img":"http://business.yale.edu/map/thumbnail/CHAPEL1203.jpg","searchText":"1203 chapel street~chapel1203~","searchKeys":[],"categories":["food","library"],"campuses":["Main"]},
      {"latitude":41.3142348,"longitude":-72.9292219,"name":"Chapel-York Garage","abbreviation":"CYPG","address":"150 York Street New Haven, CT 06511","description":null,"img":"http://business.yale.edu/map/thumbnail/CYPG.jpg","searchText":"chapel-york garage~cypg~","searchKeys":[],"categories":["parking"],"campuses":["Main"]},
      {"latitude":41.3028000,"longitude":-72.9281039,"name":"1 Church Street","abbreviation":"CHURCH1","address":"1 Church Street New Haven, CT 06511","description":null,"img":"http://business.yale.edu/map/thumbnail/CHURCH1.jpg","searchText":"1 church street~church1~","searchKeys":[],"categories":["food","library"],"campuses":["Main"]},
      {"latitude":41.3047323,"longitude":-72.9266872,"name":"55 Church Street","abbreviation":"CHURCH55","address":"55 Church Street New Haven, CT 06511","description":null,"img":"http://business.yale.edu/map/thumbnail/CHURCH55.jpg","searchText":"55 church street~church55~","searchKeys":[],"categories":["food","library"],"campuses":["Main"]},
      {"latitude":41.3063190,"longitude":-72.9257870,"name":"129 Church Street","abbreviation":"CHURCH129","address":"129 Church Street New Haven, CT 06511","description":null,"img":"http://business.yale.edu/map/thumbnail/CHURCH129.jpg","searchText":"129 church street~church129~","searchKeys":[],"categories":["food","library"],"campuses":["Main"]},
      {"latitude":41.307052,"longitude":-72.924135,"name":"157 Church Street","abbreviation":"CHURCH157","address":"157 Church Street New Haven, CT 06511","description":null,"img":"http://business.yale.edu/map/thumbnail/CHURCH157.jpg","searchText":"157 church street~church157~","searchKeys":[],"categories":["food","library"],"campuses":["Main"]},
      {"latitude":41.3080426,"longitude":-72.9240484,"name":"195 Church Street","abbreviation":"CHURCH195","address":"195 Church Street New Haven, CT 06511","description":null,"img":"http://business.yale.edu/map/thumbnail/CHURCH195.jpg","searchText":"195 church street~church195~","searchKeys":[],"categories":["food","library"],"campuses":["Main"]},
      {"latitude":41.3099255,"longitude":-72.9231362,"name":"246 Church Street","abbreviation":"CHURCH246","address":"246 Church Street New Haven, CT 06511","description":null,"img":"http://business.yale.edu/map/thumbnail/CHURCH246.jpg","searchText":"246 church street~church246~","searchKeys":[],"categories":["food","library"],"campuses":["Main"]},
      {"latitude":41.3099034,"longitude":-72.9229672,"name":"250 Church Street","abbreviation":"CHURCH250","address":"250 Church Street New Haven, CT 06511","description":null,"img":"http://business.yale.edu/map/thumbnail/CHURCH250.jpg","searchText":"250 church street~church250~","searchKeys":[],"categories":["food","library"],"campuses":["Main"]},
      {"latitude":41.3099674,"longitude":-72.9229207,"name":"258 Church Street / 96 Grove Street","abbreviation":"CHURCH258","address":"258 Church Street New Haven, CT 06511","description":null,"img":"http://business.yale.edu/map/thumbnail/CHURCH258.jpg","searchText":"258 church street / 96 grove street~church258~","searchKeys":[],"categories":["parking"],"campuses":["Main"]},
      {"latitude":41.303055,"longitude":-72.928255,"name":"2 Church Street South","abbreviation":"CSS002","address":"2 Church Street South New Haven, CT 06511","description":null,"img":"http://business.yale.edu/map/thumbnail/CSS002.jpg","searchText":"2 church street south~css002~","searchKeys":[],"categories":["bookstore","dorm"],"campuses":["Main"]},
      {"latitude":41.2996183,"longitude":-72.9299095,"name":"100 Church Street South","abbreviation":"CSS100","address":"100 Church Street South New Haven, CT 06511","description":null,"img":"http://business.yale.edu/map/thumbnail/CSS100.jpg","searchText":"100 church street south~css100~","searchKeys":[],"categories":["bookstore","dorm"],"campuses":["Main"]},
      {"latitude":41.3165108,"longitude":-72.9242519,"name":"Class of 1954 Chemistry Research Building","abbreviation":"CRB","address":"175 Prospect Street New Haven, CT 06511","description":null,"img":"http://business.yale.edu/map/thumbnail/CRB.jpg","searchText":"class of 1954 chemistry research building~crb~","searchKeys":[],"categories":["bookstore","dorm"],"campuses":["Main"]},
      {"latitude":41.3157517,"longitude":-72.9221916,"name":"Class of 1954 Environmental Science Center","abbreviation":"ESC","address":"21 Sachem Street New Haven, CT 06511","description":null,"img":"http://business.yale.edu/map/thumbnail/ESC.jpg","searchText":"class of 1954 environmental science center~esc~","searchKeys":[],"categories":["library"],"campuses":["Main"]},
      {"latitude":41.3023930,"longitude":-72.9358059,"name":"Clinic Building","abbreviation":"CB","address":"789 Howard Avenue New Haven, CT 06511","description":null,"img":"http://business.yale.edu/map/thumbnail/CB.jpg","searchText":"clinic building~cb~","searchKeys":[],"categories":["bookstore","dorm"],"campuses":["Main"]},
      {"latitude":41.3035467,"longitude":-72.9314513,"name":"College Place","abbreviation":"CLP","address":"37-55 College Street New Haven, CT 06511","description":null,"img":"http://business.yale.edu/map/thumbnail/CLP.jpg","searchText":"college place~clp~","searchKeys":[],"categories":["bookstore","dorm"],"campuses":["Main"]},
      {"latitude":41.3044934,"longitude":-72.9306519,"name":"127 College Street","abbreviation":"COLL127","address":"127 College Street New Haven, CT 06511","description":null,"img":"http://business.yale.edu/map/thumbnail/COLL127.jpg","searchText":"127 college street~coll127~","searchKeys":[],"categories":["bookstore","dorm"],"campuses":["Main"]},
      {"latitude":41.3046080,"longitude":-72.9304936,"name":"135 College Street","abbreviation":"COLL135","address":"135 College Street New Haven, CT 06511","description":null,"img":"http://business.yale.edu/map/thumbnail/COLL135.jpg","searchText":"135 college street~coll135~","searchKeys":[],"categories":["bookstore","dorm"],"campuses":["Main"]},
      {"latitude":41.3048032,"longitude":-72.9303252,"name":"153 College Street","abbreviation":"COLL153","address":"153 College Street New Haven, CT 06511","description":null,"img":"http://business.yale.edu/map/thumbnail/COLL153.jpg","searchText":"153 college street~coll153~","searchKeys":[],"categories":["bookstore","dorm"],"campuses":["Main"]},
      {"latitude":41.3103332,"longitude":-72.9263249,"name":"451 College Street","abbreviation":"COLL451","address":"451 College Street New Haven, CT 06511","description":null,"img":"http://business.yale.edu/map/thumbnail/COLL451.jpg","searchText":"451 college street~coll451~","searchKeys":[],"categories":["bookstore","dorm"],"campuses":["Main"]},
      {"latitude":41.3110248,"longitude":-72.9258462,"name":"493 College Street","abbreviation":"COLL493","address":"493 College Street New Haven, CT 06511","description":null,"img":"http://business.yale.edu/map/thumbnail/COLL493.jpg","searchText":"493 college street~coll493~","searchKeys":[],"categories":["bookstore","dorm"],"campuses":["Main"]},
      {"latitude":41.3117073,"longitude":-72.9255341,"name":"Commons","abbreviation":"UC","address":"168 Grove Street New Haven, CT 06511","description":null,"img":"http://business.yale.edu/map/thumbnail/UC.jpg","searchText":"commons~uc~","searchKeys":[],"categories":["bookstore","dorm"],"campuses":["Main"]},
      {"latitude":41.3021433,"longitude":-72.9325723,"name":"270 Congress Avenue","abbreviation":"CONG270","address":"270 Congress Avenue New Haven, CT 06511","description":null,"img":"http://business.yale.edu/map/thumbnail/CONG270.jpg","searchText":"270 congress avenue~cong270~","searchKeys":[],"categories":["bookstore","dorm"],"campuses":["Main"]},
      {"latitude":41.3015895,"longitude":-72.9333625,"name":"Congress Place","abbreviation":"YPI1","address":"301 Cedar Street New Haven, CT 06511","description":null,"img":"http://business.yale.edu/map/thumbnail/YPI1.jpg","searchText":"congress place~ypi1~","searchKeys":[],"categories":["bookstore","dorm"],"campuses":["Main"]},
      {"latitude":41.3073826,"longitude":-72.9288708,"name":"Connecticut Hall","abbreviation":"C","address":"1017 Chapel Street New Haven, CT 06511","description":null,"img":"http://business.yale.edu/map/thumbnail/C.jpg","searchText":"connecticut hall~c~","searchKeys":[],"categories":["bookstore","dorm"],"campuses":["Main"]},
      {"latitude":41.3168344,"longitude":-72.9545251,"name":"Connecticut Mental Health Center","abbreviation":"CMHC","address":"34 Park Street New Haven, CT 06511","description":null,"img":"http://business.yale.edu/map/thumbnail/CMHC.jpg","searchText":"connecticut mental health center~cmhc~","searchKeys":[],"categories":["bookstore","dorm"],"campuses":["Main"]},
      {"latitude":41.3100872,"longitude":-72.9597742,"name":"Coxe Cage","abbreviation":"COXE","address":"257 Derby Avenue West Haven, CT 06516","description":null,"img":"http://business.yale.edu/map/thumbnail/COXE.jpg","searchText":"coxe cage~coxe~","searchKeys":[],"categories":["athletic facility"],"campuses":["Main"]},
      {"latitude":41.3063480,"longitude":-72.9307090,"name":"270 Crown Street","abbreviation":"CRWN270","address":"270 Crown Street New Haven, CT 06511","description":null,"img":"http://business.yale.edu/map/thumbnail/CRWN270.jpg","searchText":"270 crown street~crwn270~","searchKeys":[],"categories":["bookstore","dorm"],"campuses":["Main"]},
      {"latitude":41.3068652,"longitude":-72.9316063,"name":"295-297 Crown Street","abbreviation":"CRWN295","address":"295-297 Crown Street New Haven, CT 06511","description":null,"img":"http://business.yale.edu/map/thumbnail/CRWN295.jpg","searchText":"295-297 crown street~crwn295~","searchKeys":[],"categories":["bookstore","dorm"],"campuses":["Main"]},
      {"latitude":41.3069596,"longitude":-72.9318351,"name":"301 Crown Street","abbreviation":"CRWN301","address":"301 Crown Street New Haven, CT 06511","description":null,"img":"http://business.yale.edu/map/thumbnail/CRWN301.jpg","searchText":"301 crown street~crwn301~","searchKeys":[],"categories":["bookstore","dorm"],"campuses":["Main"]},
      {"latitude":41.3070840,"longitude":-72.9320420,"name":"305 Crown Street","abbreviation":"CRWN305","address":"305 Crown Street New Haven, CT 06511","description":null,"img":"http://business.yale.edu/map/thumbnail/CRWN305.jpg","searchText":"305 crown street~crwn305~","searchKeys":[],"categories":["bookstore","dorm"],"campuses":["Main"]},
      {"latitude":41.3074821,"longitude":-72.9330951,"name":"341 Crown Street","abbreviation":"CRWN341","address":"341 Crown Street New Haven, CT 06511","description":null,"img":"http://business.yale.edu/map/thumbnail/CRWN341.jpg","searchText":"341 crown street~crwn341~","searchKeys":[],"categories":["bookstore","dorm"],"campuses":["Main"]},
      {"latitude":41.3076942,"longitude":-72.9336040,"name":"353 Crown Street","abbreviation":"CRWN353","address":"353 Crown Street New Haven, CT 06511","description":null,"img":"http://business.yale.edu/map/thumbnail/CRWN353.jpg","searchText":"353 crown street~crwn353~","searchKeys":[],"categories":["bookstore","dorm"],"campuses":["Main"]},
      {"latitude":41.3101533,"longitude":-72.9593624,"name":"Cullman-Heyman Tennis Center","abbreviation":"CHTC","address":"253 Derby Avenue New Haven, CT 06511","description":null,"img":"http://business.yale.edu/map/thumbnail/CHTC.jpg","searchText":"cullman-heyman tennis center~chtc~","searchKeys":[],"categories":["athletic facility"],"campuses":["Main"]},
      {"latitude":41.3253730,"longitude":-72.9205612,"name":"Curtis Hall","abbreviation":"CURTIS","address":"350 Canner Street New Haven, CT 06511","description":null,"img":"http://business.yale.edu/map/thumbnail/CURTIS.jpg","searchText":"curtis hall~curtis~","searchKeys":[],"categories":["residence hall"],"campuses":["Main"]},
      {"latitude":41.3023930,"longitude":-72.9358059,"name":"Dana Clinic Building","abbreviation":"DCB","address":"789 Howard Avenue New Haven, CT 06511","description":null,"img":"http://business.yale.edu/map/thumbnail/DCB.jpg","searchText":"dana clinic building~dcb~","searchKeys":[],"categories":["lecture hall"],"campuses":["Main"]},
      {"latitude":41.3100425,"longitude":-72.9304671,"name":"Davenport College","abbreviation":"DC","address":"248 York Street New Haven, CT 06511","description":null,"img":"http://business.yale.edu/map/thumbnail/DC.jpg","searchText":"davenport college~dc~","searchKeys":[],"categories":["residential college"],"campuses":["Main"]},
      {"latitude":41.3027699,"longitude":-72.9375095,"name":"132 Davenport Avenue","abbreviation":"DAV132","address":"132 Davenport Avenue New Haven, CT 06511","description":null,"img":"http://business.yale.edu/map/thumbnail/DAV132.jpg","searchText":"132 davenport avenue~dav132~","searchKeys":[],"categories":["lecture hall"],"campuses":["Main"]},
      {"latitude":41.3100858,"longitude":-72.9595585,"name":"DeWitt Cuyler Complex","abbreviation":"DEWCUYL","address":"256 Derby Avenue West Haven, CT 06516","description":null,"img":"http://business.yale.edu/map/thumbnail/DEWCUYL.jpg","searchText":"dewitt cuyler complex~dewcuyl~","searchKeys":[],"categories":["athletic facility"],"campuses":["Main"]},
      {"latitude":41.3125760,"longitude":-72.9635699,"name":"DeWitt Family Field","abbreviation":"DEWITTFD","address":"70 Central Avenue New Haven, CT 06515","description":null,"img":"http://business.yale.edu/map/thumbnail/DEWITTFD.jpg","searchText":"dewitt family field~dewittfd~","searchKeys":[],"categories":["athletic facility"],"campuses":["Main"]},
      {"latitude":41.3154261,"longitude":-72.9255694,"name":"Donaldson Commons","abbreviation":"DNC","address":"15 Mansfield Street New Haven, CT 06511","description":null,"img":"http://business.yale.edu/map/thumbnail/DNC.jpg","searchText":"donaldson commons~dnc~","searchKeys":[],"categories":["lecture hall"],"campuses":["Main"]},
      {"latitude":41.3120246,"longitude":-72.9241991,"name":"Dunham Laboratory","abbreviation":"DL","address":"10 Hillhouse Avenue New Haven, CT 06511","description":null,"img":"http://business.yale.edu/map/thumbnail/DL.jpg","searchText":"dunham laboratory~dl~","searchKeys":[],"categories":["lecture hall"],"campuses":["Main"]},
      {"latitude":41.3102920,"longitude":-72.9295210,"name":"Durfee Hall","abbreviation":"D","address":"198 Elm Street New Haven, CT 06511","description":null,"img":"http://business.yale.edu/map/thumbnail/D.jpg","searchText":"durfee hall~d~","searchKeys":[],"categories":["residence hall"],"campuses":["Main"]},
      {"latitude":41.3103689,"longitude":-72.9242367,"name":"Timothy Dwight College","abbreviation":"TD","address":"345 Temple Street New Haven, CT 06511","description":null,"img":"http://business.yale.edu/map/thumbnail/TD.jpg","searchText":"timothy dwight college~td~","searchKeys":[],"categories":["residential college"],"campuses":["Main"]},
      {"latitude":41.3090840,"longitude":-72.9294527,"name":"Dwight Hall &amp; Memorial Chapel","abbreviation":"DW","address":"67 High Street New Haven, CT 06511","description":null,"img":"http://business.yale.edu/map/thumbnail/DW.jpg","searchText":"dwight hall &amp; memorial chapel~dw~","searchKeys":[],"categories":["lecture hall"],"campuses":["Main"]},
      {"latitude":41.3103982,"longitude":-72.9338953,"name":"32 Edgewood Avenue","abbreviation":"EDG32","address":"32 Edgewood Avenue New Haven, CT 06511","description":null,"img":"http://business.yale.edu/map/thumbnail/EDG32.jpg","searchText":"32 edgewood avenue~edg32~","searchKeys":[],"categories":["lecture hall"],"campuses":["Main"]},
      {"latitude":41.3086960,"longitude":-72.9317310,"name":"36 Edgewood Avenue","abbreviation":"EDG36","address":"36 Edgewood Avenue New Haven, CT 06511","description":null,"img":"http://business.yale.edu/map/thumbnail/EDG36.jpg","searchText":"36 edgewood avenue~edg36~","searchKeys":[],"categories":["lecture hall"],"campuses":["Main"]},
      {"latitude":41.3089060,"longitude":-72.9303570,"name":"Jonathan Edwards College","abbreviation":"JE","address":"68 High Street New Haven, CT 06511","description":null,"img":"http://business.yale.edu/map/thumbnail/JE.jpg","searchText":"jonathan edwards college~je~","searchKeys":[],"categories":["residential college"],"campuses":["Main"]},
      {"latitude":41.3212912,"longitude":-72.9283391,"name":"309 Edwards Street","abbreviation":"EDWARDS309","address":"309 Edwards Street New Haven, CT 06511","description":null,"img":"http://business.yale.edu/map/thumbnail/EDWARDS309.jpg","searchText":"309 edwards street~edwards309~","searchKeys":[],"categories":["lecture hall"],"campuses":["Main"]},
      {"latitude":41.3200277,"longitude":-72.9217762,"name":"340 Edwards Street","abbreviation":"EDWARDS340","address":"340 Edwards Street New Haven, CT 06511","description":null,"img":"http://business.yale.edu/map/thumbnail/EDWARDS340.jpg","searchText":"340 edwards street~edwards340~","searchKeys":[],"categories":["lecture hall"],"campuses":["Main"]},
      {"latitude":41.3201069,"longitude":-72.9222928,"name":"350 Edwards Street","abbreviation":"CSB","address":"350 Edwards Street New Haven, CT 06511","description":null,"img":"http://business.yale.edu/map/thumbnail/CSB.jpg","searchText":"350 edwards street~csb~","searchKeys":[],"categories":["lecture hall"],"campuses":["Main"]},
      {"latitude":41.3201862,"longitude":-72.9228094,"name":"360 Edwards Street","abbreviation":"EDWARDS360","address":"360 Edwards Street New Haven, CT 06511","description":null,"img":"http://business.yale.edu/map/thumbnail/EDWARDS360.jpg","searchText":"360 edwards street~edwards360~","searchKeys":[],"categories":["lecture hall"],"campuses":["Main"]},
      {"latitude":41.3212912,"longitude":-72.9283391,"name":"380 Edwards Street","abbreviation":"EDWARDS380","address":"380 Edwards Street New Haven, CT 06511","description":null,"img":"http://business.yale.edu/map/thumbnail/EDWARDS380.jpg","searchText":"380 edwards street~edwards380~","searchKeys":[],"categories":["lecture hall"],"campuses":["Main"]},
      {"latitude":41.3179468,"longitude":-72.9197057,"name":"Electron Accelerator Laboratory","abbreviation":"EAL","address":"270 Whitney Avenue New Haven, CT 06511","description":null,"img":"http://business.yale.edu/map/thumbnail/EAL.jpg","searchText":"electron accelerator laboratory~eal~","searchKeys":[],"categories":["lecture hall"],"campuses":["Main"]},
      {"latitude":41.3212912,"longitude":-72.9283391,"name":"Elizabethan Club","abbreviation":"COLL459","address":"459 College Street New Haven, CT 06511","description":null,"img":"http://business.yale.edu/map/thumbnail/COLL459.jpg","searchText":"elizabethan club~coll459~","searchKeys":[],"categories":["lecture hall"],"campuses":["Main"]},
      {"latitude":41.3088844,"longitude":-72.9256345,"name":"143 Elm Street","abbreviation":"ELM143","address":"143 Elm Street New Haven, CT 06511","description":null,"img":"http://business.yale.edu/map/thumbnail/ELM143.jpg","searchText":"143 elm street~elm143~","searchKeys":[],"categories":["lecture hall"],"campuses":["Main"]},
      {"latitude":41.3090870,"longitude":-72.9258303,"name":"149 Elm Street","abbreviation":"ELM149","address":"149 Elm Street New Haven, CT 06511","description":null,"img":"http://business.yale.edu/map/thumbnail/ELM149.jpg","searchText":"149 elm street~elm149~","searchKeys":[],"categories":["lecture hall"],"campuses":["Main"]},
      {"latitude":41.3223115,"longitude":-72.9234045,"name":"Esplanade Apartments","abbreviation":"ESPLAPT","address":"386 Prospect Street New Haven, CT 06511","description":null,"img":"http://business.yale.edu/map/thumbnail/ESPLAPT.jpg","searchText":"esplanade apartments~esplapt~","searchKeys":[],"categories":["lecture hall"],"campuses":["Main"]},
      {"latitude":41.3167310,"longitude":-72.9245000,"name":"Evans Hall","abbreviation":"EVN","address":"56 Hillhouse Avenue New Haven, CT 06511","description":null,"img":"http://business.yale.edu/map/thumbnail/EVN.jpg","searchText":"evans hall~evn~","searchKeys":[],"categories":["lecture hall"],"campuses":["Main"]},
      {"latitude":41.3212912,"longitude":-72.9283391,"name":"Farnam Hall","abbreviation":"F","address":"380 College Street New Haven, CT 06511","description":null,"img":"http://business.yale.edu/map/thumbnail/F.jpg","searchText":"farnam hall~f~","searchKeys":[],"categories":["residence hall"],"campuses":["Main"]},
      {"latitude":41.3019865,"longitude":-72.9336171,"name":"Farnam Memorial Building","abbreviation":"FMB","address":"310 Cedar Street New Haven, CT 06511","description":null,"img":"http://business.yale.edu/map/thumbnail/FMB.jpg","searchText":"farnam memorial building~fmb~","searchKeys":[],"categories":["lecture hall"],"campuses":["Main"]},
      {"latitude":41.3209837,"longitude":-72.9233280,"name":"Farnam Gardens","abbreviation":"FARNGRDN","address":"335 Prospect Street New Haven, CT 06511","description":null,"img":"http://business.yale.edu/map/thumbnail/FARNGRDN.jpg","searchText":"farnam gardens~farngrdn~","searchKeys":[],"categories":["lecture hall"],"campuses":["Main"]},
      {"latitude":41.3108549,"longitude":-72.9579951,"name":"Intramural Practice Field A","abbreviation":"FIELDA","address":"45 Yale Avenue New Haven, CT 06515","description":null,"img":"http://business.yale.edu/map/thumbnail/FIELDA.jpg","searchText":"intramural practice field a~fielda~","searchKeys":[],"categories":["lecture hall"],"campuses":["Main"]},
      {"latitude":41.3121949,"longitude":-72.9634115,"name":"Varsity Practice Field B","abbreviation":"FIELDB","address":"55 Central Avenue New Haven, CT 06515","description":null,"img":"http://business.yale.edu/map/thumbnail/FIELDB.jpg","searchText":"varsity practice field b~fieldb~","searchKeys":[],"categories":["lecture hall"],"campuses":["Main"]},
      {"latitude":41.3123148,"longitude":-72.9634943,"name":"Intramural Field C","abbreviation":"FIELDC","address":"50 Central Avenue New Haven, CT 06515","description":null,"img":"http://business.yale.edu/map/thumbnail/FIELDC.jpg","searchText":"intramural field c~fieldc~","searchKeys":[],"categories":["athletic facility"],"campuses":["Main"]},
      {"latitude":41.3127066,"longitude":-72.9636078,"name":"Intramural Field D","abbreviation":"FIELDD","address":"80 Central Avenue New Haven, CT 06515","description":null,"img":"http://business.yale.edu/map/thumbnail/FIELDD.jpg","searchText":"intramural field d~fieldd~","searchKeys":[],"categories":["athletic facility"],"campuses":["Main"]},
      {"latitude":41.3124877,"longitude":-72.9634963,"name":"Varsity Practice Field E","abbreviation":"FIELDE","address":"85 Central Avenue New Haven, CT 06515","description":null,"img":"http://business.yale.edu/map/thumbnail/FIELDE.jpg","searchText":"varsity practice field e~fielde~","searchKeys":[],"categories":["athletic facility"],"campuses":["Main"]},
      {"latitude":41.3126504,"longitude":-72.9635435,"name":"Varsity Practice Field F","abbreviation":"FIELDF","address":"95 Central Avenue New Haven, CT 06515","description":null,"img":"http://business.yale.edu/map/thumbnail/FIELDF.jpg","searchText":"varsity practice field f~fieldf~","searchKeys":[],"categories":["athletic facility"],"campuses":["Main"]},
      {"latitude":41.3101189,"longitude":-72.9593526,"name":"Varsity Field X","abbreviation":"FIELDX","address":"254 Derby Avenue West Haven, CT 06516","description":null,"img":"http://business.yale.edu/map/thumbnail/FIELDX.jpg","searchText":"varsity field x~fieldx~","searchKeys":[],"categories":["athletic facility"],"campuses":["Main"]},
      {"latitude":41.3101520,"longitude":-72.9591467,"name":"Varsity Field Y","abbreviation":"FIELDY","address":"252 Derby Avenue West Haven, CT 06516","description":null,"img":"http://business.yale.edu/map/thumbnail/FIELDY.jpg","searchText":"varsity field y~fieldy~","searchKeys":[],"categories":["athletic facility"],"campuses":["Main"]},
      {"latitude":41.3124454,"longitude":-72.9635321,"name":"Field Hockey Field","abbreviation":"FIELDH","address":"60 Central Avenue New Haven, CT 06515","description":null,"img":"http://business.yale.edu/map/thumbnail/FIELDH.jpg","searchText":"field hockey field~fieldh~","searchKeys":[],"categories":["athletic facility"],"campuses":["Main"]},
      {"latitude":41.3123148,"longitude":-72.9634943,"name":"Varsity Softball Field","abbreviation":"FIELDS","address":"50 Central Avenue New Haven, CT 06515","description":null,"img":"http://business.yale.edu/map/thumbnail/FIELDS.jpg","searchText":"varsity softball field~fields~","searchKeys":[],"categories":["athletic facility"],"campuses":["Main"]},
      {"latitude":41.3100858,"longitude":-72.9595585,"name":"Clinton Frank Field","abbreviation":"FIELDCF","address":"256 Derby Avenue West Haven, CT 06516","description":null,"img":"http://business.yale.edu/map/thumbnail/FIELDCF.jpg","searchText":"clinton frank field~fieldcf~","searchKeys":[],"categories":["athletic facility"],"campuses":["Main"]},
      {"latitude":41.3125760,"longitude":-72.9635699,"name":"Johnson Field","abbreviation":"JOHNFD","address":"70 Central Avenue New Haven, CT 06515","description":null,"img":"http://business.yale.edu/map/thumbnail/JOHNFD.jpg","searchText":"johnson field~johnfd~","searchKeys":[],"categories":["athletic facility"],"campuses":["Main"]},
      {"latitude":41.3127066,"longitude":-72.9636078,"name":"Anthony Thompson Field","abbreviation":"FIELDAT","address":"80 Central Avenue New Haven, CT 06515","description":null,"img":"http://business.yale.edu/map/thumbnail/FIELDAT.jpg","searchText":"anthony thompson field~fieldat~","searchKeys":[],"categories":["athletic facility"],"campuses":["Main"]},
      {"latitude":41.3253753,"longitude":-72.9205964,"name":"Fisher Hall","abbreviation":"FISHER","address":"352 Canner Street New Haven, CT 06511","description":null,"img":"http://business.yale.edu/map/thumbnail/FISHER.jpg","searchText":"fisher hall~fisher~","searchKeys":[],"categories":["residence hall"],"campuses":["Main"]},
      {"latitude":41.3023930,"longitude":-72.9358059,"name":"Fitkin Memorial Pavilion","abbreviation":"FMP","address":"789 Howard Avenue New Haven, CT 06511","description":null,"img":"http://business.yale.edu/map/thumbnail/FMP.jpg","searchText":"fitkin memorial pavilion~fmp~","searchKeys":[],"categories":["lecture hall"],"campuses":["Main"]},
      {"latitude":41.3023930,"longitude":-72.9358059,"name":"Fitkin Amphitheater","abbreviation":"FMPA","address":"789 Howard Avenue New Haven, CT 06511","description":null,"img":"http://business.yale.edu/map/thumbnail/FMPA.jpg","searchText":"fitkin amphitheater~fmpa~","searchKeys":[],"categories":["lecture hall"],"campuses":["Main"]},
      {"latitude":41.3157640,"longitude":-72.9243440,"name":"Founders Hall","abbreviation":"FND","address":"135 Prospect Street New Haven, CT 06511","description":null,"img":"http://business.yale.edu/map/thumbnail/FND.jpg","searchText":"founders hall~fnd~","searchKeys":[],"categories":["lecture hall"],"campuses":["Main"]},
      {"latitude":41.4293547,"longitude":-72.0924931,"name":"Gales Ferry Boathouse","abbreviation":"GALESBH","address":"4 Riverside Place, Gales Ferry, CT New Haven, CT 06511","description":null,"img":"http://business.yale.edu/map/thumbnail/GALESBH.jpg","searchText":"gales ferry boathouse~galesbh~","searchKeys":[],"categories":["athletic facility"],"campuses":["Main"]},
      {"latitude":41.3053162,"longitude":-72.9311029,"name":"300 George Street","abbreviation":"GEORGE300","address":"300 George Street New Haven, CT 06511","description":null,"img":"http://business.yale.edu/map/thumbnail/GEORGE300.jpg","searchText":"300 george street~george300~","searchKeys":[],"categories":["lecture hall"],"campuses":["Main"]},
      {"latitude":41.3177079,"longitude":-72.9198226,"name":"Gibbs Laboratories","abbreviation":"JWG","address":"260 Whitney Avenue New Haven, CT 06511","description":null,"img":"http://business.yale.edu/map/thumbnail/JWG.jpg","searchText":"gibbs laboratories~jwg~","searchKeys":[],"categories":["lecture hall","library"],"campuses":["Main"]},
      {"latitude":41.3281849,"longitude":-73.1041740,"name":"Gilder Boathouse","abbreviation":"GILDER","address":"280 Roosevelt Drive, Derby, CT New Haven, CT 06511","description":null,"img":"http://business.yale.edu/map/thumbnail/GILDER.jpg","searchText":"gilder boathouse~gilder~","searchKeys":[],"categories":["athletic facility"],"campuses":["Main"]},
      {"latitude":41.3216810,"longitude":-72.9785633,"name":"Golf Course at Yale","abbreviation":"GCOURSE","address":"200 Conrad Drive New Haven, CT 06515","description":null,"img":"http://business.yale.edu/map/thumbnail/GCOURSE.jpg","searchText":"golf course at yale~gcourse~","searchKeys":[],"categories":["lecture hall"],"campuses":["Main"]},
      {"latitude":41.3221953,"longitude":-72.9234669,"name":"Greeley Memorial Laboratory","abbreviation":"GML","address":"370 Prospect Street New Haven, CT 06511","description":null,"img":"http://business.yale.edu/map/thumbnail/GML.jpg","searchText":"greeley memorial laboratory~gml~","searchKeys":[],"categories":["lecture hall"],"campuses":["Main"]},
      {"latitude":41.3221953,"longitude":-72.9234669,"name":"Greeley Greenhouse","abbreviation":"GMLGH","address":"370 Prospect Street New Haven, CT 06511","description":null,"img":"http://business.yale.edu/map/thumbnail/GMLGH.jpg","searchText":"greeley greenhouse~gmlgh~","searchKeys":[],"categories":["lecture hall"],"campuses":["Main"]},
      {"latitude":41.3212912,"longitude":-72.9283391,"name":"Green Hall","abbreviation":"GRN","address":"1156 Chapel Street New Haven, CT 06511","description":null,"img":"http://business.yale.edu/map/thumbnail/GRN.jpg","searchText":"green hall~grn~","searchKeys":[],"categories":["lecture hall"],"campuses":["Main"]},
      {"latitude":41.3229544,"longitude":-72.9233528,"name":"Greenberg Conference Center","abbreviation":"GBCC","address":"391 Prospect Street New Haven, CT 06511","description":null,"img":"http://business.yale.edu/map/thumbnail/GBCC.jpg","searchText":"greenberg conference center~gbcc~","searchKeys":[],"categories":["lecture hall"],"campuses":["Main"]},
      {"latitude":null,"longitude":null,"name":"Grove Street Garage","abbreviation":"GSG","address":"65 Grove Street New Haven, CT 06511","description":null,"img":"http://business.yale.edu/map/thumbnail/GSG.jpg","searchText":"grove street garage~gsg~","searchKeys":[],"categories":["lecture hall"],"campuses":["Main"]},
      {"latitude":41.2604795,"longitude":-72.7301903,"name":"Guilford Biological Field Station","abbreviation":"GBFS","address":"276 Old Quarry Road, Guilford, CT New Haven, CT 06511","description":null,"img":"http://business.yale.edu/map/thumbnail/GBFS.jpg","searchText":"guilford biological field station~gbfs~","searchKeys":[],"categories":["lecture hall"],"campuses":["Main"]},
      {"latitude":41.3127321,"longitude":-72.9224748,"name":"Helen Hadley Hall","abbreviation":"HHH","address":"420 Temple Street New Haven, CT 06511","description":null,"img":"http://business.yale.edu/map/thumbnail/HHH.jpg","searchText":"helen hadley hall~hhh~","searchKeys":[],"categories":["residence hall"],"campuses":["Main"]},
      {"latitude":41.3120209,"longitude":-72.9290473,"name":"Hall of Graduate Studies","abbreviation":"HGS","address":"320 York Street New Haven, CT 06511","description":null,"img":"http://business.yale.edu/map/thumbnail/HGS.jpg","searchText":"hall of graduate studies~hgs~","searchKeys":[],"categories":["residence hall"],"campuses":["Main"]},
      {"latitude":41.3106844,"longitude":-72.9260371,"name":"Harkness Hall","abbreviation":"WLH","address":"100 Wall Street New Haven, CT 06511","description":null,"img":"http://business.yale.edu/map/thumbnail/WLH.jpg","searchText":"harkness hall~wlh~","searchKeys":[],"categories":["lecture hall"],"campuses":["Main"]},
      {"latitude":41.3042640,"longitude":-72.9339620,"name":"Harkness Memorial Hall","abbreviation":"ESH","address":"367 Cedar Street New Haven, CT 06511","description":null,"img":"http://business.yale.edu/map/thumbnail/ESH.jpg","searchText":"harkness memorial hall~esh~","searchKeys":[],"categories":["lecture hall"],"campuses":["Main"]},
      {"latitude":41.3031280,"longitude":-72.9340830,"name":"Harkness Memorial Auditorium","abbreviation":"MHMA","address":"333 Cedar Street New Haven, CT 06511","description":null,"img":"http://business.yale.edu/map/thumbnail/MHMA.jpg","searchText":"harkness memorial auditorium~mhma~","searchKeys":[],"categories":["residence hall"],"campuses":["Main"]},
      {"latitude":35.7092764,"longitude":-89.0881099,"name":"Harkness Tower","abbreviation":"HARKNESS","address":"74 High Street New Haven, CT 06511","description":null,"img":"http://business.yale.edu/map/thumbnail/HARKNESS.jpg","searchText":"harkness tower~harkness~","searchKeys":[],"categories":["lecture hall"],"campuses":["Main"]},
      {"latitude":41.3070371,"longitude":-72.9388826,"name":"Harris Building","abbreviation":"NIHB","address":"230 South Frontage Road New Haven, CT 06511","description":null,"img":"http://business.yale.edu/map/thumbnail/NIHB.jpg","searchText":"harris building~nihb~","searchKeys":[],"categories":["lecture hall"],"campuses":["Main"]},
      {"latitude":41.3091989,"longitude":-72.9263990,"name":"Hendrie Hall","abbreviation":"HEN","address":"165 Elm Street New Haven, CT 06511","description":null,"img":"http://business.yale.edu/map/thumbnail/HEN.jpg","searchText":"hendrie hall~hen~","searchKeys":[],"categories":["lecture hall"],"campuses":["Main"]},
      {"latitude":41.3113254,"longitude":-72.9244594,"name":"15 Hillhouse Avenue","abbreviation":"HLH15","address":"15 Hillhouse Avenue New Haven, CT 06511","description":null,"img":"http://business.yale.edu/map/thumbnail/HLH15.jpg","searchText":"15 hillhouse avenue~hlh15~","searchKeys":[],"categories":["museum"],"campuses":["Main"]},
      {"latitude":41.3113313,"longitude":-72.9244570,"name":"17 Hillhouse Avenue","abbreviation":"HLH17","address":"17 Hillhouse Avenue New Haven, CT 06511","description":null,"img":"http://business.yale.edu/map/thumbnail/HLH17.jpg","searchText":"17 hillhouse avenue~hlh17~","searchKeys":[],"categories":["place of interest"],"campuses":["Main"]},
      {"latitude":41.3113569,"longitude":-72.9244872,"name":"24 Hillhouse Avenue","abbreviation":"HLH24","address":"24 Hillhouse Avenue New Haven, CT 06511","description":null,"img":"http://business.yale.edu/map/thumbnail/HLH24.jpg","searchText":"24 hillhouse avenue~hlh24~","searchKeys":[],"categories":["place of interest"],"campuses":["Main"]},
      {"latitude":41.3135274,"longitude":-72.9235770,"name":"27 Hillhouse Avenue","abbreviation":"HLH27","address":"27 Hillhouse Avenue New Haven, CT 06511","description":null,"img":"http://business.yale.edu/map/thumbnail/HLH27.jpg","searchText":"27 hillhouse avenue~hlh27~","searchKeys":[],"categories":["place of interest"],"campuses":["Main"]},
      {"latitude":41.3135363,"longitude":-72.9236141,"name":"28 Hillhouse Avenue","abbreviation":"HLH28","address":"28 Hillhouse Avenue New Haven, CT 06511","description":null,"img":"http://business.yale.edu/map/thumbnail/HLH28.jpg","searchText":"28 hillhouse avenue~hlh28~","searchKeys":[],"categories":["place of interest"],"campuses":["Main"]},
      {"latitude":41.3137566,"longitude":-72.9235203,"name":"30 Hillhouse Avenue","abbreviation":"HLH30","address":"30 Hillhouse Avenue New Haven, CT 06511","description":null,"img":"http://business.yale.edu/map/thumbnail/HLH30.jpg","searchText":"30 hillhouse avenue~hlh30~","searchKeys":[],"categories":["place of interest"],"campuses":["Main"]},
      {"latitude":41.3139241,"longitude":-72.9234082,"name":"33 Hillhouse Avenue","abbreviation":"HLH33","address":"33 Hillhouse Avenue New Haven, CT 06511","description":null,"img":"http://business.yale.edu/map/thumbnail/HLH33.jpg","searchText":"33 hillhouse avenue~hlh33~","searchKeys":[],"categories":["place of interest"],"campuses":["Main"]},
      {"latitude":41.3157880,"longitude":-72.9227610,"name":"35 Hillhouse Avenue","abbreviation":"HLH35","address":"35 Hillhouse Avenue New Haven, CT 06511","description":null,"img":"http://business.yale.edu/map/thumbnail/HLH35.jpg","searchText":"35 hillhouse avenue~hlh35~","searchKeys":[],"categories":["place of interest"],"campuses":["Main"]},
      {"latitude":41.3141885,"longitude":-72.9232957,"name":"37 Hillhouse Avenue","abbreviation":"HLH37","address":"37 Hillhouse Avenue New Haven, CT 06511","description":null,"img":"http://business.yale.edu/map/thumbnail/HLH37.jpg","searchText":"37 hillhouse avenue~hlh37~","searchKeys":[],"categories":["place of interest"],"campuses":["Main"]},
      {"latitude":41.3144871,"longitude":-72.9231713,"name":"43 Hillhouse Avenue","abbreviation":"HLH43","address":"43 Hillhouse Avenue New Haven, CT 06511","description":null,"img":"http://business.yale.edu/map/thumbnail/HLH43.jpg","searchText":"43 hillhouse avenue~hlh43~","searchKeys":[],"categories":["place of interest"],"campuses":["Main"]},
      {"latitude":41.3144957,"longitude":-72.9232085,"name":"46 Hillhouse Avenue","abbreviation":"HLH46","address":"46 Hillhouse Avenue New Haven, CT 06511","description":null,"img":"http://business.yale.edu/map/thumbnail/HLH46.jpg","searchText":"46 hillhouse avenue~hlh46~","searchKeys":[],"categories":["place of interest"],"campuses":["Main"]},
      {"latitude":41.3149307,"longitude":-72.9229963,"name":"51 Hillhouse Avenue","abbreviation":"HLH51","address":"51 Hillhouse Avenue New Haven, CT 06511","description":null,"img":"http://business.yale.edu/map/thumbnail/HLH51.jpg","searchText":"51 hillhouse avenue~hlh51~","searchKeys":[],"categories":["place of interest"],"campuses":["Main"]},
      {"latitude":41.3022000,"longitude":-72.9333620,"name":"Hope Memorial Building","abbreviation":"JEH","address":"315 Cedar Street New Haven, CT 06511","description":null,"img":"http://business.yale.edu/map/thumbnail/JEH.jpg","searchText":"hope memorial building~jeh~","searchKeys":[],"categories":["place of interest"],"campuses":["Main"]},
      {"latitude":41.3151743,"longitude":-72.9229083,"name":"Horchow Hall","abbreviation":"HRCH","address":"55 Hillhouse Avenue New Haven, CT 06511","description":null,"img":"http://business.yale.edu/map/thumbnail/HRCH.jpg","searchText":"horchow hall~hrch~","searchKeys":[],"categories":["lecture hall"],"campuses":["Main"]},
      {"latitude":41.3024278,"longitude":-72.9358781,"name":"Howard Avenue Garage","abbreviation":"HAG","address":"790 Howard Avenue New Haven, CT 06511","description":null,"img":"http://business.yale.edu/map/thumbnail/HAG.jpg","searchText":"howard avenue garage~hag~","searchKeys":[],"categories":["parking"],"campuses":["Main"]},
      {"latitude":41.3102249,"longitude":-72.9347970,"name":"Howe Street Garage","abbreviation":"HSG","address":"67-81 Howe Street New Haven, CT 06511","description":null,"img":"http://business.yale.edu/map/thumbnail/HSG.jpg","searchText":"howe street garage~hsg~","searchKeys":[],"categories":["parking"],"campuses":["Main"]},
      {"latitude":41.3135752,"longitude":-72.9303174,"name":"Hunter Building","abbreviation":"HRT","address":"15 York Street New Haven, CT 06511","description":null,"img":"http://business.yale.edu/map/thumbnail/HRT.jpg","searchText":"hunter building~hrt~","searchKeys":[],"categories":["place of interest"],"campuses":["Main"]},
      {"latitude":39.6502542,"longitude":-75.7324535,"name":"Info New Haven","abbreviation":"INFONH","address":"1000 Chapel Street New Haven, CT 06511","description":null,"img":"http://business.yale.edu/map/thumbnail/INFONH.jpg","searchText":"info new haven~infonh~","searchKeys":[],"categories":["place of interest"],"campuses":["Main"]},
      {"latitude":41.3162080,"longitude":-72.9253289,"name":"Ingalls Rink","abbreviation":"IR","address":"73 Sachem Street New Haven, CT 06511","description":null,"img":"http://business.yale.edu/map/thumbnail/IR.jpg","searchText":"ingalls rink~ir~","searchKeys":[],"categories":["athletic facility"],"campuses":["Main"]},
      {"latitude":41.0877266,"longitude":-85.1346998,"name":"Ivy Manor Apartments","abbreviation":"IVY","address":"164-182 Highland Street; 567-605 Prospect Street New Haven, CT 06511","description":null,"img":"http://business.yale.edu/map/thumbnail/IVY.jpg","searchText":"ivy manor apartments~ivy~","searchKeys":[],"categories":["place of interest"],"campuses":["Main"]},
      {"latitude":41.3112933,"longitude":-72.9245133,"name":"Kirtland Hall","abbreviation":"K","address":"2 Hillhouse Avenue New Haven, CT 06511","description":null,"img":"http://business.yale.edu/map/thumbnail/K.jpg","searchText":"kirtland hall~k~","searchKeys":[],"categories":["place of interest"],"campuses":["Main"]},
      {"latitude":41.3172060,"longitude":-72.9225790,"name":"Kline Biology Tower","abbreviation":"KBT","address":"219 Prospect Street New Haven, CT 06511","description":null,"img":"http://business.yale.edu/map/thumbnail/KBT.jpg","searchText":"kline biology tower~kbt~","searchKeys":[],"categories":["food","library"],"campuses":["Main"]},
      {"latitude":41.3189875,"longitude":-72.9235627,"name":"Kline Chemistry Laboratory","abbreviation":"KCL","address":"255 Prospect Street New Haven, CT 06511","description":null,"img":"http://business.yale.edu/map/thumbnail/KCL.jpg","searchText":"kline chemistry laboratory~kcl~","searchKeys":[],"categories":["place of interest"],"campuses":["Main"]},
      {"latitude":41.3166453,"longitude":-72.9203381,"name":"Kline Geology Laboratory","abbreviation":"KGL","address":"210 Whitney Avenue New Haven, CT 06511","description":null,"img":"http://business.yale.edu/map/thumbnail/KGL.jpg","searchText":"kline geology laboratory~kgl~","searchKeys":[],"categories":["library"],"campuses":["Main"]},
      {"latitude":41.3169583,"longitude":-72.9240923,"name":"Kroon Hall","abbreviation":"KRN","address":"195 Prospect Street New Haven, CT 06511","description":null,"img":"http://business.yale.edu/map/thumbnail/KRN.jpg","searchText":"kroon hall~krn~","searchKeys":[],"categories":["lecture hall"],"campuses":["Main"]},
      {"latitude":41.3212912,"longitude":-72.9283391,"name":"Laboratory for Medicine &amp; Pediatrics","abbreviation":"LMP","address":"15 York Street New Haven, CT 06511","description":null,"img":"http://business.yale.edu/map/thumbnail/LMP.jpg","searchText":"laboratory for medicine &amp; pediatrics~lmp~","searchKeys":[],"categories":["place of interest"],"campuses":["Main"]},
      {"latitude":41.3015952,"longitude":-72.9344535,"name":"Laboratory for Surgery, Obstetrics &amp; Gynecology","abbreviation":"LSOG","address":"375 Congress Avenue New Haven, CT 06511","description":null,"img":"http://business.yale.edu/map/thumbnail/LSOG.jpg","searchText":"laboratory for surgery, obstetrics &amp; gynecology~lsog~","searchKeys":[],"categories":["place of interest"],"campuses":["Main"]},
      {"latitude":41.3034435,"longitude":-72.9315672,"name":"Laboratory of Epidemiology &amp; Public Health","abbreviation":"LEPH","address":"60 College Street New Haven, CT 06511","description":null,"img":"http://business.yale.edu/map/thumbnail/LEPH.jpg","searchText":"laboratory of epidemiology &amp; public health~leph~","searchKeys":[],"categories":["place of interest"],"campuses":["Main"]},
      {"latitude":41.3133830,"longitude":-72.9305640,"name":"Lanman Center","abbreviation":"LANMAN","address":"70 Tower Parkway New Haven, CT 06511","description":null,"img":"http://business.yale.edu/map/thumbnail/LANMAN.jpg","searchText":"lanman center~lanman~","searchKeys":[],"categories":["athletic facility"],"campuses":["Main"]},
      {"latitude":41.3100660,"longitude":-72.9285980,"name":"Lanman-Wright Hall","abbreviation":"LWR","address":"206 Elm Street New Haven, CT 06511","description":null,"img":"http://business.yale.edu/map/thumbnail/LWR.jpg","searchText":"lanman-wright hall~lwr~","searchKeys":[],"categories":["residence hall"],"campuses":["Main"]},
      {"latitude":41.3101864,"longitude":-72.9591565,"name":"Lapham Field House","abbreviation":"LAPHAM","address":"251 Derby Avenue West Haven, CT 06516","description":null,"img":"http://business.yale.edu/map/thumbnail/LAPHAM.jpg","searchText":"lapham field house~lapham~","searchKeys":[],"categories":["place of interest"],"campuses":["Main"]},
      {"latitude":41.3019865,"longitude":-72.9336171,"name":"Lauder Hall","abbreviation":"LH","address":"310 Cedar Street New Haven, CT 06511","description":null,"img":"http://business.yale.edu/map/thumbnail/LH.jpg","searchText":"lauder hall~lh~","searchKeys":[],"categories":["place of interest"],"campuses":["Main"]},
      {"latitude":41.3212912,"longitude":-72.9283391,"name":"Lawrance Hall","abbreviation":"L","address":"358 College Street New Haven, CT 06511","description":null,"img":"http://business.yale.edu/map/thumbnail/L.jpg","searchText":"lawrance hall~l~","searchKeys":[],"categories":["residence hall"],"campuses":["Main"]},
      {"latitude":41.3126290,"longitude":-72.9241130,"name":"Leet Oliver Memorial Hall","abbreviation":"LOM","address":"12 Hillhouse Avenue New Haven, CT 06511","description":null,"img":"http://business.yale.edu/map/thumbnail/LOM.jpg","searchText":"leet oliver memorial hall~lom~","searchKeys":[],"categories":["library"],"campuses":["Main"]},
      {"latitude":41.3100448,"longitude":-72.9265273,"name":"Leigh Hall","abbreviation":"LGH","address":"435 College Street New Haven, CT 06511","description":null,"img":"http://business.yale.edu/map/thumbnail/LGH.jpg","searchText":"leigh hall~lgh~","searchKeys":[],"categories":["place of interest"],"campuses":["Main"]},
      {"latitude":41.3216969,"longitude":-72.9233441,"name":"Leitner Observatory","abbreviation":"LEITOBSV","address":"355 Prospect Street New Haven, CT 06511","description":null,"img":"http://business.yale.edu/map/thumbnail/LEITOBSV.jpg","searchText":"leitner observatory~leitobsv~","searchKeys":[],"categories":["place of interest"],"campuses":["Main"]},
      {"latitude":41.7156149,"longitude":-72.8364107,"name":"Lewis Walpole Library","abbreviation":"WL","address":"154 Main Street, Farmington, CT New Haven, CT 06511","description":null,"img":"http://business.yale.edu/map/thumbnail/WL.jpg","searchText":"lewis walpole library~wl~","searchKeys":[],"categories":["library"],"campuses":["Main"]},
      {"latitude":41.3453820,"longitude":-72.9216469,"name":"Library Shelving Facility","abbreviation":"LSF","address":"147 Leeder Hill Road, Hamden, CT New Haven, CT 06511","description":null,"img":"http://business.yale.edu/map/thumbnail/LSF.jpg","searchText":"library shelving facility~lsf~","searchKeys":[],"categories":["place of interest"],"campuses":["Main"]},
      {"latitude":41.3085590,"longitude":-72.9295740,"name":"Linsly-Chittenden Hall","abbreviation":"LC","address":"63 High Street New Haven, CT 06511","description":null,"img":"http://business.yale.edu/map/thumbnail/LC.jpg","searchText":"linsly-chittenden hall~lc~","searchKeys":[],"categories":["lecture hall"],"campuses":["Main"]},
      {"latitude":41.3135752,"longitude":-72.9303174,"name":"Lippard Laboratory","abbreviation":"LLCI","address":"15 York Street New Haven, CT 06511","description":null,"img":"http://business.yale.edu/map/thumbnail/LLCI.jpg","searchText":"lippard laboratory~llci~","searchKeys":[],"categories":["place of interest"],"campuses":["Main"]},
      {"latitude":41.3212912,"longitude":-72.9283391,"name":"Lock Street Garage","abbreviation":"LSG","address":"57 Lock Street New Haven, CT 06511","description":null,"img":"http://business.yale.edu/map/thumbnail/LSG.jpg","searchText":"lock street garage~lsg~","searchKeys":[],"categories":["parking"],"campuses":["Main"]},
      {"latitude":41.3087204,"longitude":-72.9313625,"name":"Loria Center","abbreviation":"LORIA","address":"190 York Street New Haven, CT 06511","description":null,"img":"http://business.yale.edu/map/thumbnail/LORIA.jpg","searchText":"loria center~loria~","searchKeys":[],"categories":["place of interest"],"campuses":["Main"]},
      {"latitude":41.313483,"longitude":-72.922547,"name":"Lot 37","abbreviation":"LOT37V","address":"Trumbull Street New Haven, CT 06511","description":null,"img":"http://business.yale.edu/map/thumbnail/LOT37V.jpg","searchText":"lot 37~lot37v~","searchKeys":[],"categories":["parking"],"campuses":["Main"]},
      {"latitude":41.3143860,"longitude":-72.9241190,"name":"Luce Hall","abbreviation":"LUCE","address":"34 Hillhouse Avenue New Haven, CT 06511","description":null,"img":"http://business.yale.edu/map/thumbnail/LUCE.jpg","searchText":"luce hall~luce~","searchKeys":[],"categories":["lecture hall"],"campuses":["Main"]},
      {"latitude":41.3023930,"longitude":-72.9358059,"name":"Magnetic Resonance Center","abbreviation":"MRC","address":"789 Howard Avenue New Haven, CT 06511","description":null,"img":"http://business.yale.edu/map/thumbnail/MRC.jpg","searchText":"magnetic resonance center~mrc~","searchKeys":[],"categories":["place of interest"],"campuses":["Main"]},
      {"latitude":41.3132899,"longitude":-72.9251430,"name":"Malone Center","abbreviation":"MEC","address":"55 Prospect Street New Haven, CT 06511","description":null,"img":"http://business.yale.edu/map/thumbnail/MEC.jpg","searchText":"malone center~mec~","searchKeys":[],"categories":["place of interest"],"campuses":["Main"]},
      {"latitude":41.3213849,"longitude":-72.9259059,"name":"227 Mansfield Street","abbreviation":"MANS227","address":"227 Mansfield Street New Haven, CT 06511","description":null,"img":"http://business.yale.edu/map/thumbnail/MANS227.jpg","searchText":"227 mansfield street~mans227~","searchKeys":[],"categories":["place of interest"],"campuses":["Main"]},
      {"latitude":41.3227726,"longitude":-72.9256857,"name":"279 Mansfield Street","abbreviation":"MANS279","address":"279 Mansfield Street New Haven, CT 06511","description":null,"img":"http://business.yale.edu/map/thumbnail/MANS279.jpg","searchText":"279 mansfield street~mans279~","searchKeys":[],"categories":["place of interest"],"campuses":["Main"]},
      {"latitude":41.3235802,"longitude":-72.9253696,"name":"Mansfield Street Apartments","abbreviation":"MANSAPTA","address":"291-309 Mansfield Street New Haven, CT 06511","description":null,"img":"http://business.yale.edu/map/thumbnail/MANSAPTA.jpg","searchText":"mansfield street apartments~mansapta~","searchKeys":[],"categories":["place of interest"],"campuses":["Main"]},
      {"latitude":null,"longitude":null,"name":"Marquand Chapel","abbreviation":"MARQUAND","address":"Sterling Divinity Quadrangle, 409 Prospect Street  New Haven, CT 06511","description":null,"img":"http://business.yale.edu/map/thumbnail/MARQUAND.jpg","searchText":"marquand chapel~marquand~","searchKeys":[],"categories":["place of interest"],"campuses":["Main"]},
      {"latitude":41.3216359,"longitude":-72.9234349,"name":"Marsh Hall","abbreviation":"MRSH","address":"360 Prospect Street New Haven, CT 06511","description":null,"img":"http://business.yale.edu/map/thumbnail/MRSH.jpg","searchText":"marsh hall~mrsh~","searchKeys":[],"categories":["place of interest"],"campuses":["Main"]},
      {"latitude":41.3207975,"longitude":-72.9233495,"name":"Marsh Botanical Garden","abbreviation":"MRSHGDN","address":"Prospect Street &amp; Hillside Place New Haven, CT 06511","description":null,"img":"http://business.yale.edu/map/thumbnail/MRSHGDN.jpg","searchText":"marsh botanical garden~mrshgdn~","searchKeys":[],"categories":["place of interest"],"campuses":["Main"]},
      {"latitude":41.3225127,"longitude":-72.9257875,"name":"Marsh Garden Greenhouses ","abbreviation":"MBG1","address":"227269 Mansfield Street New Haven, CT 06511","description":null,"img":"http://business.yale.edu/map/thumbnail/MBG1.jpg","searchText":"marsh garden greenhouses ~mbg1~","searchKeys":[],"categories":["place of interest"],"campuses":["Main"]},
      {"latitude":41.3113075,"longitude":-72.9244667,"name":"Mason Laboratory","abbreviation":"ML","address":"9 Hillhouse Avenue New Haven, CT 06511","description":null,"img":"http://business.yale.edu/map/thumbnail/ML.jpg","searchText":"mason laboratory~ml~","searchKeys":[],"categories":["place of interest"],"campuses":["Main"]},
      {"latitude":41.3212912,"longitude":-72.9283391,"name":"McClellan Hall","abbreviation":"EM","address":"1037 Chapel Street New Haven, CT 06511","description":null,"img":"http://business.yale.edu/map/thumbnail/EM.jpg","searchText":"mcclellan hall~em~","searchKeys":[],"categories":["residence hall"],"campuses":["Main"]},
      {"latitude":41.2746000,"longitude":-72.8173000,"name":"McNay Family Sailing Center","abbreviation":"YCYC","address":"179 Clark Avenue, Branford, CT New Haven, CT 06511","description":null,"img":"http://business.yale.edu/map/thumbnail/YCYC.jpg","searchText":"mcnay family sailing center~ycyc~","searchKeys":[],"categories":["athletic facility"],"campuses":["Main"]},
      {"latitude":36.3291613,"longitude":-78.5929107,"name":"Memorial Hall","abbreviation":"MEMORIAL","address":"College and Grove Streets New Haven, CT 06511","description":null,"img":"http://business.yale.edu/map/thumbnail/MEMORIAL.jpg","searchText":"memorial hall~memorial~","searchKeys":[],"categories":["place of interest"],"campuses":["Main"]},
      {"latitude":41.3117743,"longitude":-72.9292269,"name":"Morse College","abbreviation":"MC","address":"304 York Street New Haven, CT 06511","description":null,"img":"http://business.yale.edu/map/thumbnail/MC.jpg","searchText":"morse college~mc~","searchKeys":[],"categories":["residential college"],"campuses":["Main"]},
      {"latitude":41.3160950,"longitude":-72.9257342,"name":"Mudd Library","abbreviation":"MUDD","address":"38 Mansfield Street New Haven, CT 06511","description":null,"img":"http://business.yale.edu/map/thumbnail/MUDD.jpg","searchText":"mudd library~mudd~","searchKeys":[],"categories":["library"],"campuses":["Main"]},
      {"latitude":41.3123526,"longitude":-72.9058052,"name":"John Murphy Drive Warehouse","abbreviation":"JMDW","address":"100 John Murphy Drive  New Haven, CT 06513","description":null,"img":"http://business.yale.edu/map/thumbnail/JMDW.jpg","searchText":"john murphy drive warehouse~jmdw~","searchKeys":[],"categories":["place of interest"],"campuses":["Main"]},
      {"latitude":41.3113888,"longitude":-72.9307290,"name":"Off Broadway Theater","abbreviation":"OBT","address":"41 Broadway New Haven, CT 06511","description":null,"img":"http://business.yale.edu/map/thumbnail/OBT.jpg","searchText":"off broadway theater~obt~","searchKeys":[],"categories":["place of interest"],"campuses":["Main"]},
      {"latitude":41.3162842,"longitude":-72.9243133,"name":"Osborn Memorial Laboratories","abbreviation":"OML","address":"165 Prospect Street New Haven, CT 06511","description":null,"img":"http://business.yale.edu/map/thumbnail/OML.jpg","searchText":"osborn memorial laboratories~oml~","searchKeys":[],"categories":["place of interest"],"campuses":["Main"]},
      {"latitude":41.3690436,"longitude":-72.2480817,"name":"Outdoor Education Center","abbreviation":"OEC","address":"124 Scott Road, East Lyme, CT New Haven, CT 06511","description":null,"img":"http://business.yale.edu/map/thumbnail/OEC.jpg","searchText":"outdoor education center~oec~","searchKeys":[],"categories":["place of interest"],"campuses":["Main"]},
      {"latitude":41.3092448,"longitude":-72.9332819,"name":"205 Park Street","abbreviation":"PARK205","address":"205 Park Street New Haven, CT 06511","description":null,"img":"http://business.yale.edu/map/thumbnail/PARK205.jpg","searchText":"205 park street~park205~","searchKeys":[],"categories":["place of interest"],"campuses":["Main"]},
      {"latitude":41.3094164,"longitude":-72.9331510,"name":"211 Park Street","abbreviation":"PARK211","address":"211 Park Street New Haven, CT 06511","description":null,"img":"http://business.yale.edu/map/thumbnail/PARK211.jpg","searchText":"211 park street~park211~","searchKeys":[],"categories":["place of interest"],"campuses":["Main"]},
      {"latitude":41.3095308,"longitude":-72.9330638,"name":"215 Park Street","abbreviation":"PARK215","address":"215 Park Street New Haven, CT 06511","description":null,"img":"http://business.yale.edu/map/thumbnail/PARK215.jpg","searchText":"215 park street~park215~","searchKeys":[],"categories":["place of interest"],"campuses":["Main"]},
      {"latitude":41.3095880,"longitude":-72.9330202,"name":"217 Park Street","abbreviation":"PARK217","address":"217 Park Street New Haven, CT 06511","description":null,"img":"http://business.yale.edu/map/thumbnail/PARK217.jpg","searchText":"217 park street~park217~","searchKeys":[],"categories":["place of interest"],"campuses":["Main"]},
      {"latitude":41.3133830,"longitude":-72.9305640,"name":"Payne Whitney Gymnasium","abbreviation":"PWG","address":"70 Tower Parkway New Haven, CT 06511","description":null,"img":"http://business.yale.edu/map/thumbnail/PWG.jpg","searchText":"payne whitney gymnasium~pwg~","searchKeys":[],"categories":["athletic facility"],"campuses":["Main"]},
      {"latitude":41.3151110,"longitude":-72.9208520,"name":"Peabody Museum of Natural History","abbreviation":"PM","address":"170 Whitney Avenue New Haven, CT 06511","description":null,"img":"http://business.yale.edu/map/thumbnail/PM.jpg","searchText":"peabody museum of natural history~pm~","searchKeys":[],"categories":["museum"],"campuses":["Main"]},
      {"latitude":41.3082646,"longitude":-72.9279331,"name":"Phelps Hall &amp; Gate","abbreviation":"PHELPS","address":"344 College Street New Haven, CT 06511","description":null,"img":"http://business.yale.edu/map/thumbnail/PHELPS.jpg","searchText":"phelps hall &amp; gate~phelps~","searchKeys":[],"categories":["library"],"campuses":["Main"]},
      {"latitude":30.2650776,"longitude":-97.7439512,"name":"Pierce Laboratory","abbreviation":"PL","address":"290 Congress Avenue New Haven, CT 06511","description":null,"img":"http://business.yale.edu/map/thumbnail/PL.jpg","searchText":"pierce laboratory~pl~","searchKeys":[],"categories":["place of interest"],"campuses":["Main"]},
      {"latitude":41.3097351,"longitude":-72.9325045,"name":"Pierson College","abbreviation":"PC","address":"261 Park Street New Haven, CT 06511","description":null,"img":"http://business.yale.edu/map/thumbnail/PC.jpg","searchText":"pierson college~pc~","searchKeys":[],"categories":["residential college"],"campuses":["Main"]},
      {"latitude":41.3212912,"longitude":-72.9283391,"name":"Pierson-Sage Garage","abbreviation":"PSPG","address":"280 Whitney Avenue New Haven, CT 06511","description":null,"img":"http://business.yale.edu/map/thumbnail/PSPG.jpg","searchText":"pierson-sage garage~pspg~","searchKeys":[],"categories":["place of interest"],"campuses":["Main"]},
      {"latitude":41.3023930,"longitude":-72.9358059,"name":"Primary Care Center","abbreviation":"PCC","address":"789 Howard Avenue New Haven, CT 06511","description":null,"img":"http://business.yale.edu/map/thumbnail/PCC.jpg","searchText":"primary care center~pcc~","searchKeys":[],"categories":["place of interest"],"campuses":["Main"]},
      {"latitude":41.3148692,"longitude":-72.9253127,"name":"8 Prospect Place","abbreviation":"PROSPL8","address":"8 Prospect Place New Haven, CT 06511","description":null,"img":"http://business.yale.edu/map/thumbnail/PROSPL8.jpg","searchText":"8 prospect place~prospl8~","searchKeys":[],"categories":["place of interest"],"campuses":["Main"]},
      {"latitude":41.3138471,"longitude":-72.9249966,"name":"77 Prospect Street","abbreviation":"PROS77","address":"77 Prospect Street New Haven, CT 06511","description":null,"img":"http://business.yale.edu/map/thumbnail/PROS77.jpg","searchText":"77 prospect street~pros77~","searchKeys":[],"categories":["place of interest"],"campuses":["Main"]},
      {"latitude":41.3137616,"longitude":-72.9250668,"name":"88 Prospect Street","abbreviation":"PROS88","address":"88 Prospect Street New Haven, CT 06511","description":null,"img":"http://business.yale.edu/map/thumbnail/PROS88.jpg","searchText":"88 prospect street~pros88~","searchKeys":[],"categories":["place of interest"],"campuses":["Main"]},
      {"latitude":41.3138932,"longitude":-72.9250312,"name":"100 Prospect Street","abbreviation":"PROS100","address":"100 Prospect Street New Haven, CT 06511","description":null,"img":"http://business.yale.edu/map/thumbnail/PROS100.jpg","searchText":"100 prospect street~pros100~","searchKeys":[],"categories":["place of interest"],"campuses":["Main"]},
      {"latitude":41.3148168,"longitude":-72.9247689,"name":"140 Prospect Street","abbreviation":"PROS140","address":"140 Prospect Street New Haven, CT 06511","description":null,"img":"http://business.yale.edu/map/thumbnail/PROS140.jpg","searchText":"140 prospect street~pros140~","searchKeys":[],"categories":["place of interest"],"campuses":["Main"]},
      {"latitude":41.3171458,"longitude":-72.9241279,"name":"202 Prospect Street","abbreviation":"PROS202","address":"202 Prospect Street New Haven, CT 06511","description":null,"img":"http://business.yale.edu/map/thumbnail/PROS202.jpg","searchText":"202 prospect street~pros202~","searchKeys":[],"categories":["place of interest"],"campuses":["Main"]},
      {"latitude":41.3173609,"longitude":-72.9241240,"name":"204 Prospect Street","abbreviation":"PROS204","address":"204 Prospect Street New Haven, CT 06511","description":null,"img":"http://business.yale.edu/map/thumbnail/PROS204.jpg","searchText":"204 prospect street~pros204~","searchKeys":[],"categories":["place of interest"],"campuses":["Main"]},
      {"latitude":41.3173616,"longitude":-72.9240694,"name":"210 Prospect Street","abbreviation":"PROS210","address":"210 Prospect Street New Haven, CT 06511","description":null,"img":"http://business.yale.edu/map/thumbnail/PROS210.jpg","searchText":"210 prospect street~pros210~","searchKeys":[],"categories":["place of interest"],"campuses":["Main"]},
      {"latitude":41.3177216,"longitude":-72.9239681,"name":"230 Prospect Street","abbreviation":"PROS230","address":"230 Prospect Street New Haven, CT 06511","description":null,"img":"http://business.yale.edu/map/thumbnail/PROS230.jpg","searchText":"230 prospect street~pros230~","searchKeys":[],"categories":["place of interest"],"campuses":["Main"]},
      {"latitude":41.3181396,"longitude":-72.9238500,"name":"238 Prospect Street","abbreviation":"PROS238","address":"238 Prospect Street New Haven, CT 06511","description":null,"img":"http://business.yale.edu/map/thumbnail/PROS238.jpg","searchText":"238 prospect street~pros238~","searchKeys":[],"categories":["place of interest"],"campuses":["Main"]},
      {"latitude":41.3183486,"longitude":-72.9237910,"name":"242 Prospect Street","abbreviation":"PROS242","address":"242 Prospect Street New Haven, CT 06511","description":null,"img":"http://business.yale.edu/map/thumbnail/PROS242.jpg","searchText":"242 prospect street~pros242~","searchKeys":[],"categories":["place of interest"],"campuses":["Main"]},
      {"latitude":41.3189756,"longitude":-72.9236139,"name":"254 Prospect Street","abbreviation":"PROS254","address":"254 Prospect Street New Haven, CT 06511","description":null,"img":"http://business.yale.edu/map/thumbnail/PROS254.jpg","searchText":"254 prospect street~pros254~","searchKeys":[],"categories":["place of interest"],"campuses":["Main"]},
      {"latitude":41.3191534,"longitude":-72.9235357,"name":"276 Prospect Street","abbreviation":"PROS276","address":"276 Prospect Street New Haven, CT 06511","description":null,"img":"http://business.yale.edu/map/thumbnail/PROS276.jpg","searchText":"276 prospect street~pros276~","searchKeys":[],"categories":["place of interest"],"campuses":["Main"]},
      {"latitude":41.3202817,"longitude":-72.9233647,"name":"282 Prospect Street","abbreviation":"PROS282","address":"282 Prospect Street New Haven, CT 06511","description":null,"img":"http://business.yale.edu/map/thumbnail/PROS282.jpg","searchText":"282 prospect street~pros282~","searchKeys":[],"categories":["place of interest"],"campuses":["Main"]},
      {"latitude":41.3202952,"longitude":-72.9233638,"name":"300 Prospect Street","abbreviation":"PROS300","address":"300 Prospect Street New Haven, CT 06511","description":null,"img":"http://business.yale.edu/map/thumbnail/PROS300.jpg","searchText":"300 prospect street~pros300~","searchKeys":[],"categories":["place of interest"],"campuses":["Main"]},
      {"latitude":41.3202798,"longitude":-72.9233178,"name":"301 Prospect Street","abbreviation":"PROS301","address":"301 Prospect Street New Haven, CT 06511","description":null,"img":"http://business.yale.edu/map/thumbnail/PROS301.jpg","searchText":"301 prospect street~pros301~","searchKeys":[],"categories":["place of interest"],"campuses":["Main"]},
      {"latitude":41.3204110,"longitude":-72.9233619,"name":"310 Prospect Street","abbreviation":"PROS310","address":"310 Prospect Street New Haven, CT 06511","description":null,"img":"http://business.yale.edu/map/thumbnail/PROS310.jpg","searchText":"310 prospect street~pros310~","searchKeys":[],"categories":["place of interest"],"campuses":["Main"]},
      {"latitude":41.3204578,"longitude":-72.9233632,"name":"314 Prospect Street","abbreviation":"PROS314","address":"314 Prospect Street New Haven, CT 06511","description":null,"img":"http://business.yale.edu/map/thumbnail/PROS314.jpg","searchText":"314 prospect street~pros314~","searchKeys":[],"categories":["place of interest"],"campuses":["Main"]},
      {"latitude":null,"longitude":null,"name":"406 Prospect Street","abbreviation":"PROS406","address":"406 Prospect Street New Haven, CT 06511","description":null,"img":"http://business.yale.edu/map/thumbnail/PROS406.jpg","searchText":"406 prospect street~pros406~","searchKeys":[],"categories":["place of interest"],"campuses":["Main"]},
      {"latitude":41.3248262,"longitude":-72.9231500,"name":"459 Prospect Street","abbreviation":"PROS459","address":"459 Prospect Street New Haven, CT 06511","description":null,"img":"http://business.yale.edu/map/thumbnail/PROS459.jpg","searchText":"459 prospect street~pros459~","searchKeys":[],"categories":["place of interest"],"campuses":["Main"]},
      {"latitude":41.3252403,"longitude":-72.9230239,"name":"Prospect Garden Apartments","abbreviation":"PROSGDN","address":"470 Prospect Street New Haven, CT 06511","description":null,"img":"http://business.yale.edu/map/thumbnail/PROSGDN.jpg","searchText":"prospect garden apartments~prosgdn~","searchKeys":[],"categories":["place of interest"],"campuses":["Main"]},
      {"latitude":41.3169386,"longitude":-72.9241840,"name":"Prospect-Sachem Garage","abbreviation":"PSG","address":"200 Prospect Street New Haven, CT 06511","description":null,"img":"http://business.yale.edu/map/thumbnail/PSG.jpg","searchText":"prospect-sachem garage~psg~","searchKeys":[],"categories":["parking"],"campuses":["Main"]},
      {"latitude":41.3123251,"longitude":-72.9634492,"name":"Reese Stadium","abbreviation":"SOCCLAX","address":"75 Central Avenue New Haven, CT 06511","description":null,"img":"http://business.yale.edu/map/thumbnail/SOCCLAX.jpg","searchText":"reese stadium~socclax~","searchKeys":[],"categories":["athletic facility"],"campuses":["Main"]},
      {"latitude":41.3096593,"longitude":-72.9307179,"name":"Rose Alumni House","abbreviation":"RAH","address":"232 York Street New Haven, CT 06511","description":null,"img":"http://business.yale.edu/map/thumbnail/RAH.jpg","searchText":"rose alumni house~rah~","searchKeys":[],"categories":["place of interest"],"campuses":["Main"]},
      {"latitude":41.3158529,"longitude":-72.9290726,"name":"Rose Center","abbreviation":"ROSE","address":"101 Ashmun Street New Haven, CT 06511","description":null,"img":"http://business.yale.edu/map/thumbnail/ROSE.jpg","searchText":"rose center~rose~","searchKeys":[],"categories":["place of interest"],"campuses":["Main"]},
      {"latitude":41.3108452,"longitude":-72.9234087,"name":"Rosenfeld Hall","abbreviation":"RSN","address":"109-111 Grove Street New Haven, CT 06511","description":null,"img":"http://business.yale.edu/map/thumbnail/RSN.jpg","searchText":"rosenfeld hall~rsn~","searchKeys":[],"categories":["residence hall"],"campuses":["Main"]},
      {"latitude":41.3145795,"longitude":-72.9247918,"name":"Rosenkranz Hall","abbreviation":"RKZ","address":"115 Prospect Street New Haven, CT 06511","description":null,"img":"http://business.yale.edu/map/thumbnail/RKZ.jpg","searchText":"rosenkranz hall~rkz~","searchKeys":[],"categories":["place of interest"],"campuses":["Main"]},
      {"latitude":41.3084903,"longitude":-72.9315239,"name":"Rudolph Hall","abbreviation":"RDH","address":"180 York Street New Haven, CT 06511","description":null,"img":"http://business.yale.edu/map/thumbnail/RDH.jpg","searchText":"rudolph hall~rdh~","searchKeys":[],"categories":["lecture hall","library"],"campuses":["Main"]},
      {"latitude":41.3154590,"longitude":-72.9211564,"name":"10 Sachem Street","abbreviation":"SACH10","address":"10 Sachem Street New Haven, CT 06511","description":null,"img":"http://business.yale.edu/map/thumbnail/SACH10.jpg","searchText":"10 sachem street~sach10~","searchKeys":[],"categories":["place of interest"],"campuses":["Main"]},
      {"latitude":41.3157532,"longitude":-72.9224057,"name":"41 Sachem Street","abbreviation":"SACH41","address":"41 Sachem Street New Haven, CT 06511","description":null,"img":"http://business.yale.edu/map/thumbnail/SACH41.jpg","searchText":"41 sachem street~sach41~","searchKeys":[],"categories":["place of interest"],"campuses":["Main"]},
      {"latitude":41.3161695,"longitude":-72.9250572,"name":"80 Sachem Street","abbreviation":"SACH80","address":"80 Sachem Street New Haven, CT 06511","description":null,"img":"http://business.yale.edu/map/thumbnail/SACH80.jpg","searchText":"80 sachem street~sach80~","searchKeys":[],"categories":["place of interest"],"campuses":["Main"]},
      {"latitude":41.3171660,"longitude":-72.9238610,"name":"Sage Hall","abbreviation":"SB","address":"205 Prospect Street New Haven, CT 06511","description":null,"img":"http://business.yale.edu/map/thumbnail/SB.jpg","searchText":"sage hall~sb~","searchKeys":[],"categories":["lecture hall"],"campuses":["Main"]},
      {"latitude":41.3213032,"longitude":-72.9198074,"name":"175 St. Ronan Street","abbreviation":"STRO175","address":"175 St. Ronan Street New Haven, CT 06511","description":null,"img":"http://business.yale.edu/map/thumbnail/STRO175.jpg","searchText":"175 st. ronan street~stro175~","searchKeys":[],"categories":["place of interest"],"campuses":["Main"]},
      {"latitude":41.3212912,"longitude":-72.9283391,"name":"St. Thomas More Chapel &amp; Golden Center","abbreviation":"STM","address":"268 Park Street New Haven, CT 06511","description":null,"img":"http://business.yale.edu/map/thumbnail/STM.jpg","searchText":"st. thomas more chapel &amp; golden center~stm~","searchKeys":[],"categories":["place of interest"],"campuses":["Main"]},
      {"latitude":41.3104896,"longitude":-72.9295286,"name":"Saybrook College","abbreviation":"SY","address":"242 Elm Street New Haven, CT 06511","description":null,"img":"http://business.yale.edu/map/thumbnail/SY.jpg","searchText":"saybrook college~sy~","searchKeys":[],"categories":["residential college"],"campuses":["Main"]},
      {"latitude":41.3214912,"longitude":-72.9295438,"name":"25 Science Park","abbreviation":"SCIPK25","address":"150 Munson Street New Haven, CT 06511","description":null,"img":"http://business.yale.edu/map/thumbnail/SCIPK25.jpg","searchText":"25 science park~scipk25~","searchKeys":[],"categories":["place of interest"],"campuses":["Main"]},
      {"latitude":41.3010595,"longitude":-72.9361366,"name":"Seamco Building","abbreviation":"SEAMCO","address":"464 Congress Avenue New Haven, CT 06511","description":null,"img":"http://business.yale.edu/map/thumbnail/SEAMCO.jpg","searchText":"seamco building~seamco~","searchKeys":[],"categories":["place of interest"],"campuses":["Main"]},
      {"latitude":41.3117681,"longitude":-72.9255244,"name":"Sheffield-Sterling-Strathcona","abbreviation":"SSS","address":"1 Prospect Street New Haven, CT 06511","description":null,"img":"http://business.yale.edu/map/thumbnail/SSS.jpg","searchText":"sheffield-sterling-strathcona~sss~","searchKeys":[],"categories":["lecture hall"],"campuses":["Main"]},
      {"latitude":41.3111910,"longitude":-72.9257230,"name":"Silliman College","abbreviation":"SM","address":"505 College Street New Haven, CT 06511","description":null,"img":"http://business.yale.edu/map/thumbnail/SM.jpg","searchText":"silliman college~sm~","searchKeys":[],"categories":["residential college"],"campuses":["Main"]},
      {"latitude":41.3102274,"longitude":-72.9249854,"name":"Slifka Center","abbreviation":"WALL80","address":"80 Wall Street New Haven, CT 06511","description":null,"img":"http://business.yale.edu/map/thumbnail/WALL80.jpg","searchText":"slifka center~wall80~","searchKeys":[],"categories":["place of interest"],"campuses":["Main"]},
      {"latitude":41.3174291,"longitude":-72.9240027,"name":"Sloane Physics Laboratory","abbreviation":"SPL","address":"217 Prospect Street New Haven, CT 06511","description":null,"img":"http://business.yale.edu/map/thumbnail/SPL.jpg","searchText":"sloane physics laboratory~spl~","searchKeys":[],"categories":["place of interest"],"campuses":["Main"]},
      {"latitude":null,"longitude":null,"name":"Smilow Cancer Hospital","abbreviation":"SCH","address":"20 York Street New Haven, CT 06511","description":null,"img":"http://business.yale.edu/map/thumbnail/SCH.jpg","searchText":"smilow cancer hospital~sch~","searchKeys":[],"categories":["place of interest"],"campuses":["Main"]},
      {"latitude":null,"longitude":null,"name":"Smilow Field Center","abbreviation":"SMILOW","address":"251 Derby Avenue New Haven, CT 06511","description":null,"img":"http://business.yale.edu/map/thumbnail/SMILOW.jpg","searchText":"smilow field center~smilow~","searchKeys":[],"categories":["athletic facility"],"campuses":["Main"]},
      {"latitude":41.3031280,"longitude":-72.9340830,"name":"Nathan Smith Building","abbreviation":"NSB","address":"333 Cedar Street New Haven, CT 06511","description":null,"img":"http://business.yale.edu/map/thumbnail/NSB.jpg","searchText":"nathan smith building~nsb~","searchKeys":[],"categories":["place of interest"],"campuses":["Main"]},
      {"latitude":41.3103970,"longitude":-72.9265810,"name":"Sprague Hall","abbreviation":"SMH","address":"470 College Street New Haven, CT 06511","description":null,"img":"http://business.yale.edu/map/thumbnail/SMH.jpg","searchText":"sprague hall~smh~","searchKeys":[],"categories":["lecture hall"],"campuses":["Main"]},
      {"latitude":41.3158008,"longitude":-72.9227223,"name":"Steinbach Hall","abbreviation":"STN","address":"52 Hillhouse Avenue New Haven, CT 06511","description":null,"img":"http://business.yale.edu/map/thumbnail/STN.jpg","searchText":"steinbach hall~stn~","searchKeys":[],"categories":["place of interest"],"campuses":["Main"]},
      {"latitude":41.3175120,"longitude":-72.9231690,"name":"Sterling Chemistry Laboratory","abbreviation":"SCL","address":"225 Prospect Street New Haven, CT 06511","description":null,"img":"http://business.yale.edu/map/thumbnail/SCL.jpg","searchText":"sterling chemistry laboratory~scl~","searchKeys":[],"categories":["library"],"campuses":["Main"]},
      {"latitude":41.3235920,"longitude":-72.9232980,"name":"Sterling Divinity Quadrangle","abbreviation":"SDQ","address":"409 Prospect Street New Haven, CT 06511","description":null,"img":"http://business.yale.edu/map/thumbnail/SDQ.jpg","searchText":"sterling divinity quadrangle~sdq~","searchKeys":[],"categories":["library"],"campuses":["Main"]},
      {"latitude":41.3031280,"longitude":-72.9340830,"name":"Sterling Hall of Medicine","abbreviation":"SHM","address":"333 Cedar Street New Haven, CT 06511","description":null,"img":"http://business.yale.edu/map/thumbnail/SHM.jpg","searchText":"sterling hall of medicine~shm~","searchKeys":[],"categories":["library"],"campuses":["Main"]},
      {"latitude":41.3116140,"longitude":-72.9281370,"name":"Sterling Law Building","abbreviation":"SLB","address":"127 Wall Street New Haven, CT 06511","description":null,"img":"http://business.yale.edu/map/thumbnail/SLB.jpg","searchText":"sterling law building~slb~","searchKeys":[],"categories":["lecture hall","library"],"campuses":["Main"]},
      {"latitude":41.3109892,"longitude":-72.9281202,"name":"Sterling Memorial Library","abbreviation":"SML","address":"120 High Street New Haven, CT 06511","description":null,"img":"http://business.yale.edu/map/thumbnail/SML.jpg","searchText":"sterling memorial library~sml~","searchKeys":[],"categories":["library"],"campuses":["Main"]},
      {"latitude":41.3019916,"longitude":-72.9331946,"name":"Sterling Power Plant","abbreviation":"SPP","address":"309 Congress Avenue New Haven, CT 06511","description":null,"img":"http://business.yale.edu/map/thumbnail/SPP.jpg","searchText":"sterling power plant~spp~","searchKeys":[],"categories":["place of interest"],"campuses":["Main"]},
      {"latitude":41.3117111,"longitude":-72.9292747,"name":"Ezra Stiles College","abbreviation":"ES","address":"302 York Street New Haven, CT 06511","description":null,"img":"http://business.yale.edu/map/thumbnail/ES.jpg","searchText":"ezra stiles college~es~","searchKeys":[],"categories":["residential college"],"campuses":["Main"]},
      {"latitude":41.3106576,"longitude":-72.9260972,"name":"Stoeckel Hall","abbreviation":"STOECK","address":"469 College Street New Haven, CT 06511","description":null,"img":"http://business.yale.edu/map/thumbnail/STOECK.jpg","searchText":"stoeckel hall~stoeck~","searchKeys":[],"categories":["place of interest"],"campuses":["Main"]},
      {"latitude":41.3079413,"longitude":-72.9302709,"name":"Street Hall","abbreviation":"ST","address":"1071 Chapel Street New Haven, CT 06511","description":null,"img":"http://business.yale.edu/map/thumbnail/ST.jpg","searchText":"street hall~st~","searchKeys":[],"categories":["place of interest"],"campuses":["Main"]},
      {"latitude":41.3039498,"longitude":-72.9289463,"name":"40 Temple Street","abbreviation":"TMC40","address":"40 Temple Street New Haven, CT 06511","description":null,"img":"http://business.yale.edu/map/thumbnail/TMC40.jpg","searchText":"40 temple street~tmc40~","searchKeys":[],"categories":["place of interest"],"campuses":["Main"]},
      {"latitude":41.3042314,"longitude":-72.9287230,"name":"60 Temple Street","abbreviation":"TMC60","address":"60 Temple Street New Haven, CT 06511","description":null,"img":"http://business.yale.edu/map/thumbnail/TMC60.jpg","searchText":"60 temple street~tmc60~","searchKeys":[],"categories":["place of interest"],"campuses":["Main"]},
      {"latitude":41.3056525,"longitude":-72.9276963,"name":"142 Temple Street","abbreviation":"TEMP142","address":"142 Temple Street New Haven, CT 06511","description":null,"img":"http://business.yale.edu/map/thumbnail/TEMP142.jpg","searchText":"142 temple street~temp142~","searchKeys":[],"categories":["place of interest"],"campuses":["Main"]},
      {"latitude":41.3091103,"longitude":-72.9252183,"name":"302 Temple Street","abbreviation":"TEMP302","address":"302 Temple Street New Haven, CT 06511","description":null,"img":"http://business.yale.edu/map/thumbnail/TEMP302.jpg","searchText":"302 temple street~temp302~","searchKeys":[],"categories":["place of interest"],"campuses":["Main"]},
      {"latitude":41.3087850,"longitude":-72.9254330,"name":"320 Temple Street","abbreviation":"TEMP320","address":"320 Temple Street New Haven, CT 06511","description":null,"img":"http://business.yale.edu/map/thumbnail/TEMP320.jpg","searchText":"320 temple street~temp320~","searchKeys":[],"categories":["place of interest"],"campuses":["Main"]},
      {"latitude":41.3111755,"longitude":-72.9237138,"name":"370 Temple Street","abbreviation":"TEMP370","address":"370 Temple Street New Haven, CT 06511","description":null,"img":"http://business.yale.edu/map/thumbnail/TEMP370.jpg","searchText":"370 temple street~temp370~","searchKeys":[],"categories":["place of interest"],"campuses":["Main"]},
      {"latitude":41.3122375,"longitude":-72.9228746,"name":"405 Temple Street","abbreviation":"TEMP405","address":"405 Temple Street New Haven, CT 06511","description":null,"img":"http://business.yale.edu/map/thumbnail/TEMP405.jpg","searchText":"405 temple street~temp405~","searchKeys":[],"categories":["place of interest"],"campuses":["Main"]},
      {"latitude":41.3125919,"longitude":-72.9226150,"name":"421 Temple Street","abbreviation":"TEMP421","address":"421 Temple Street New Haven, CT 06511","description":null,"img":"http://business.yale.edu/map/thumbnail/TEMP421.jpg","searchText":"421 temple street~temp421~","searchKeys":[],"categories":["place of interest"],"campuses":["Main"]},
      {"latitude":41.3128485,"longitude":-72.9224807,"name":"432-434 Temple Street","abbreviation":"TEMP432","address":"432-434 Temple Street New Haven, CT 06511","description":null,"img":"http://business.yale.edu/map/thumbnail/TEMP432.jpg","searchText":"432-434 temple street~temp432~","searchKeys":[],"categories":["place of interest"],"campuses":["Main"]},
      {"latitude":41.3128577,"longitude":-72.9224203,"name":"433 Temple Street","abbreviation":"TEMP433","address":"433 Temple Street New Haven, CT 06511","description":null,"img":"http://business.yale.edu/map/thumbnail/TEMP433.jpg","searchText":"433 temple street~temp433~","searchKeys":[],"categories":["place of interest"],"campuses":["Main"]},
      {"latitude":41.3129994,"longitude":-72.9223701,"name":"442 Temple Street","abbreviation":"TEMP442","address":"442 Temple Street New Haven, CT 06511","description":null,"img":"http://business.yale.edu/map/thumbnail/TEMP442.jpg","searchText":"442 temple street~temp442~","searchKeys":[],"categories":["place of interest"],"campuses":["Main"]},
      {"latitude":41.3052985,"longitude":-72.9279229,"name":"Temple Street Garage","abbreviation":"TSG","address":"Temple &amp; Crown Streets New Haven, CT 06511","description":null,"img":"http://business.yale.edu/map/thumbnail/TSG.jpg","searchText":"temple street garage~tsg~","searchKeys":[],"categories":["parking"],"campuses":["Main"]},
      {"latitude":41.3129361,"longitude":-72.9321451,"name":"Ray Tompkins House","abbreviation":"RTH","address":"20 Tower Parkway New Haven, CT 06511","description":null,"img":"http://business.yale.edu/map/thumbnail/RTH.jpg","searchText":"ray tompkins house~rth~","searchKeys":[],"categories":["athletic facility"],"campuses":["Main"]},
      {"latitude":41.3023930,"longitude":-72.9358059,"name":"Tompkins East","abbreviation":"TE","address":"789 Howard Avenue New Haven, CT 06511","description":null,"img":"http://business.yale.edu/map/thumbnail/TE.jpg","searchText":"tompkins east~te~","searchKeys":[],"categories":["place of interest"],"campuses":["Main"]},
      {"latitude":41.3023930,"longitude":-72.9358059,"name":"Tompkins Memorial Pavilion","abbreviation":"TMP","address":"789 Howard Avenue New Haven, CT 06511","description":null,"img":"http://business.yale.edu/map/thumbnail/TMP.jpg","searchText":"tompkins memorial pavilion~tmp~","searchKeys":[],"categories":["place of interest"],"campuses":["Main"]},
      {"latitude":41.3135400,"longitude":-72.9292360,"name":"100 Tower Parkway","abbreviation":"NRH","address":"100 Tower Parkway New Haven, CT 06511","description":null,"img":"http://business.yale.edu/map/thumbnail/NRH.jpg","searchText":"100 tower parkway~nrh~","searchKeys":[],"categories":["residence hall"],"campuses":["Main"]},
      {"latitude":41.3103691,"longitude":-72.9291602,"name":"Trumbull College","abbreviation":"TC","address":"241 Elm Street New Haven, CT 06511","description":null,"img":"http://business.yale.edu/map/thumbnail/TC.jpg","searchText":"trumbull college~tc~","searchKeys":[],"categories":["residential college"],"campuses":["Main"]},
      {"latitude":41.3135405,"longitude":-72.9236058,"name":"87 Trumbull Street","abbreviation":"TRUM87","address":"87 Trumbull Street New Haven, CT 06511","description":null,"img":"http://business.yale.edu/map/thumbnail/TRUM87.jpg","searchText":"87 trumbull street~trum87~","searchKeys":[],"categories":["place of interest"],"campuses":["Main"]},
      {"latitude":41.3144420,"longitude":-72.9236200,"name":"Undergraduate Admissions","abbreviation":"HLH38","address":"38 Hillhouse Avenue New Haven, CT 06511","description":null,"img":"http://business.yale.edu/map/thumbnail/HLH38.jpg","searchText":"undergraduate admissions~hlh38~","searchKeys":[],"categories":["place of interest"],"campuses":["Main"]},
      {"latitude":41.3094257,"longitude":-72.9308707,"name":"University Theatre","abbreviation":"UT","address":"222 York Street New Haven, CT 06511","description":null,"img":"http://business.yale.edu/map/thumbnail/UT.jpg","searchText":"university theatre~ut~","searchKeys":[],"categories":["place of interest"],"campuses":["Main"]},
      {"latitude":41.3074541,"longitude":-72.9290500,"name":"Vanderbilt Hall","abbreviation":"V","address":"1035 Chapel Street New Haven, CT 06511","description":null,"img":"http://business.yale.edu/map/thumbnail/V.jpg","searchText":"vanderbilt hall~v~","searchKeys":[],"categories":["residence hall"],"campuses":["Main"]},
      {"latitude":41.3097703,"longitude":-72.9238668,"name":"53 Wall Street","abbreviation":"WALL53","address":"53 Wall Street New Haven, CT 06511","description":null,"img":"http://business.yale.edu/map/thumbnail/WALL53.jpg","searchText":"53 wall street~wall53~","searchKeys":[],"categories":["lecture hall"],"campuses":["Main"]},
      {"latitude":41.3099181,"longitude":-72.9242777,"name":"66 Wall Street","abbreviation":"WALL66","address":"66 Wall Street New Haven, CT 06511","description":null,"img":"http://business.yale.edu/map/thumbnail/WALL66.jpg","searchText":"66 wall street~wall66~","searchKeys":[],"categories":["place of interest"],"campuses":["Main"]},
      {"latitude":41.3104425,"longitude":-72.9254028,"name":"81 Wall Street","abbreviation":"WALL81","address":"81 Wall Street New Haven, CT 06511","description":null,"img":"http://business.yale.edu/map/thumbnail/WALL81.jpg","searchText":"81 wall street~wall81~","searchKeys":[],"categories":["place of interest"],"campuses":["Main"]},
      {"latitude":41.3104559,"longitude":-72.9255113,"name":"82-90 Wall Street","abbreviation":"WALL82","address":"82-90 Wall Street New Haven, CT 06511","description":null,"img":"http://business.yale.edu/map/thumbnail/WALL82.jpg","searchText":"82-90 wall street~wall82~","searchKeys":[],"categories":["place of interest"],"campuses":["Main"]},
      {"latitude":41.3112837,"longitude":-72.9244765,"name":"Warner House","abbreviation":"WARNER","address":"1 Hillhouse Avenue New Haven, CT 06511","description":null,"img":"http://business.yale.edu/map/thumbnail/WARNER.jpg","searchText":"warner house~warner~","searchKeys":[],"categories":["place of interest"],"campuses":["Main"]},
      {"latitude":41.3157953,"longitude":-72.9227969,"name":"Watson Center","abbreviation":"WTS","address":"60 Sachem Street New Haven, CT 06511","description":null,"img":"http://business.yale.edu/map/thumbnail/WTS.jpg","searchText":"watson center~wts~","searchKeys":[],"categories":["place of interest"],"campuses":["Main"]},
      {"latitude":41.3132167,"longitude":-72.9251623,"name":"Watson Hall","abbreviation":"AKW","address":"51 Prospect Street New Haven, CT 06511","description":null,"img":"http://business.yale.edu/map/thumbnail/AKW.jpg","searchText":"watson hall~akw~","searchKeys":[],"categories":["place of interest"],"campuses":["Main"]},
      {"latitude":41.3084038,"longitude":-72.9299922,"name":"Weir Hall","abbreviation":"WEIR","address":"66 High Street New Haven, CT 06511","description":null,"img":"http://business.yale.edu/map/thumbnail/WEIR.jpg","searchText":"weir hall~weir~","searchKeys":[],"categories":["place of interest"],"campuses":["Main"]},
      {"latitude":41.3082467,"longitude":-72.9279472,"name":"Welch Hall","abbreviation":"W","address":"330 College Street New Haven, CT 06511","description":null,"img":"http://business.yale.edu/map/thumbnail/W.jpg","searchText":"welch hall~w~","searchKeys":[],"categories":["residence hall"],"campuses":["Main"]},
      {"latitude":41.3255702,"longitude":-72.9226870,"name":"Whitehall Apartments","abbreviation":"WHITAPT","address":"375-407 Canner; 511-543 Prospect New Haven, CT 06511","description":null,"img":"http://business.yale.edu/map/thumbnail/WHITAPT.jpg","searchText":"whitehall apartments~whitapt~","searchKeys":[],"categories":["place of interest"],"campuses":["Main"]},
      {"latitude":41.3120530,"longitude":-72.9219620,"name":"55 Whitney Avenue","abbreviation":"WHIT55","address":"55 Whitney Avenue New Haven, CT 06511","description":null,"img":"http://business.yale.edu/map/thumbnail/WHIT55.jpg","searchText":"55 whitney avenue~whit55~","searchKeys":[],"categories":["place of interest"],"campuses":["Main"]},
      {"latitude":41.3123903,"longitude":-72.9220139,"name":"70 Whitney Avenue","abbreviation":"WHIT70","address":"70 Whitney Avenue New Haven, CT 06511","description":null,"img":"http://business.yale.edu/map/thumbnail/WHIT70.jpg","searchText":"70 whitney avenue~whit70~","searchKeys":[],"categories":["place of interest"],"campuses":["Main"]},